[{"id":1575,"name":"PGD Ho\u00e0ng V\u0103n Th\u00e1i","lat":10.728731,"lng":106.718676,"category":"Vietinbank","city":"Long An","state":null,"postal":null,"phone":null,"address":"B08 L\u00f4 C4 - 1 Khu TTTM Ph\u00fa M\u1ef9 H\u01b0ng, ph\u01b0\u1eddng T\u00e2n Ph\u00fa, qu\u1eadn 7, TP. H\u1ed3 Ch\u00ed Minh"},{"id":1576,"name":"PGD B\u00ecnh \u0110i\u1ec1n","lat":10.704178,"lng":106.609374,"category":"Vietinbank","city":"Long An","state":null,"postal":null,"phone":null,"address":"Ch\u1ee3 B\u00ecnh \u0110i\u1ec1n, \u0110\u1ea1i L\u1ed9 Nguy\u1ec5n V\u0103n Linh, khu ph\u1ed1 6, ph\u01b0\u1eddng 7, qu\u1eadn 8, TP. H\u1ed3 Ch\u00ed Minh"},{"id":1577,"name":"PGD Ho\u00e0ng Di\u1ec7u","lat":10.760389,"lng":106.699067,"category":"Vietinbank","city":"Long An","state":null,"postal":null,"phone":null,"address":"Chung c\u01b0 H3 \u0111\u01b0\u1eddng Ho\u00e0ng Di\u1ec7u, ph\u01b0\u1eddng 06, qu\u1eadn 4, TP. H\u1ed3 Ch\u00ed Minh"},{"id":1578,"name":"PGD Thu\u1eadn H\u01b0ng","lat":10.967095,"lng":106.489509,"category":"Vietinbank","city":"Long An","state":null,"postal":null,"phone":null,"address":"G100 v\u00e0 70\/2 Qu\u1ed1c l\u1ed9 22, huy\u1ec7n H\u00f3c M\u00f4n, TP. H\u1ed3 Ch\u00ed Minh"},{"id":1579,"name":"PGD L\u00ea Th\u1ecb Ri\u00eang","lat":10.866261,"lng":106.654597,"category":"Vietinbank","city":"Long An","state":null,"postal":null,"phone":null,"address":"H2 L\u00ea Th\u1ecb Ri\u00eang, ph\u01b0\u1eddng Th\u1edbi An, qu\u1eadn 12, TP. H\u1ed3 Ch\u00ed Minh"},{"id":1580,"name":"PGD \u0110inh Ti\u00ean Ho\u00e0ng","lat":10.791558,"lng":106.69586,"category":"Vietinbank","city":"H\u1ed3 Ch\u00ed Minh","state":null,"postal":null,"phone":null,"address":"HMC Tower, s\u1ed1 193 \u0110inh Ti\u00ean Ho\u00e0ng, ph\u01b0\u1eddng \u0110aKao, qu\u1eadn 1, TP. H\u1ed3 Ch\u00ed Minh"},{"id":1581,"name":"CN T\u00e2y S\u00e0i G\u00f2n","lat":10.733105,"lng":106.600582,"category":"Vietinbank","city":"Long An","state":null,"postal":null,"phone":null,"address":"L\u00f4 20 \u0111\u01b0\u1eddng Song H\u00e0nh, KCN T\u00e2n T\u1ea1o, qu\u1eadn B\u00ecnh T\u00e2n, TP. H\u1ed3 Ch\u00ed Minh"},{"id":1582,"name":"CN 9 - TP. HCM","lat":10.827494,"lng":106.679468,"category":"Vietinbank","city":"Long An","state":null,"postal":null,"phone":null,"address":"S\u1ed1 01 Nguy\u1ec5n Oanh, ph\u01b0\u1eddng 10, qu\u1eadn G\u00f2 V\u1ea5p, TP. H\u1ed3 Ch\u00ed Minh"},{"id":1583,"name":"PGD Nguy\u1ec5n Th\u00f4ng","lat":10.781276,"lng":106.679132,"category":"Vietinbank","city":"Long An","state":null,"postal":null,"phone":null,"address":"S\u1ed1 01 Nguy\u1ec5n Th\u00f4ng, ph\u01b0\u1eddng 9, qu\u1eadn 3, TP. H\u1ed3 Ch\u00ed Minh"},{"id":1584,"name":"CN Th\u1ee7 \u0110\u1ee9c","lat":10.849739,"lng":106.768511,"category":"Vietinbank","city":"Long An","state":null,"postal":null,"phone":null,"address":"S\u1ed1 01 V\u00f5 v\u0103n Ng\u00e2n, ph\u01b0\u1eddng Linh Chi\u1ec3u, qu\u1eadn Th\u1ee7 \u0110\u1ee9c, TP. H\u1ed3 Ch\u00ed Minh"},{"id":1605,"name":"PGD T\u00e2n \u0110\u00f4ng Hi\u1ec7p","lat":10.921815,"lng":106.741431,"category":"Vietinbank","city":"Long An","state":null,"postal":null,"phone":null,"address":"\u0110\u01b0\u1eddng DT 743, ph\u01b0\u1eddng T\u00e2n \u0110\u00f4ng Hi\u1ec7p, th\u1ecb x\u00e3 D\u0129 An, t\u1ec9nh B\u00ecnh D\u01b0\u01a1ng"},{"id":1606,"name":"PGD Th\u1ee7 D\u1ea7u M\u1ed9t","lat":10.976398,"lng":106.671044,"category":"Vietinbank","city":"Long An","state":null,"postal":null,"phone":null,"address":"S\u1ed1 13-14 NP5 Trung t\u00e2m \u0111\u00f4 th\u1ecb Becamex, \u0111\u01b0\u1eddng 30\/4 khu ph\u1ed1 2, TP. Th\u1ee7 D\u1ea7u M\u1ed9t, t\u1ec9nh B\u00ecnh D\u01b0\u01a1ng"},{"id":1607,"name":"PGD An Ph\u00fa","lat":10.797954,"lng":106.739042,"category":"Vietinbank","city":"Long An","state":null,"postal":null,"phone":null,"address":"S\u1ed1 16A Khu \u0110\u00f4 th\u1ecb m\u1edbi An Ph\u00fa - An Kh\u00e1nh, ph\u01b0\u1eddng An Ph\u00fa, qu\u1eadn 2, TP. H\u1ed3 Ch\u00ed Minh"},{"id":1608,"name":"PGD D\u0129 An","lat":10.877056,"lng":106.74954,"category":"Vietinbank","city":"B\u00ecnh D\u01b0\u01a1ng","state":null,"postal":null,"phone":null,"address":"S\u1ed1 19\/20 \u0110\u01b0\u1eddng M\u1ed3i, khu ph\u1ed1 Th\u1ed1ng Nh\u1ea5t I, th\u1ecb x\u00e3 D\u0129 An, t\u1ec9nh B\u00ecnh D\u01b0\u01a1ng"},{"id":1609,"name":"CN KCN B\u00ecnh D\u01b0\u01a1ng","lat":10.927821,"lng":106.720328,"category":"Vietinbank","city":"B\u00ecnh D\u01b0\u01a1ng","state":null,"postal":null,"phone":null,"address":"S\u1ed1 20 \u0110\u1ed9c L\u1eadp, KCN S\u00f3ng Th\u1ea7n 1, th\u1ecb x\u00e3 D\u0129 An, t\u1ec9nh B\u00ecnh D\u01b0\u01a1ng"},{"id":1610,"name":"PGD An B\u00ecnh","lat":10.874735,"lng":106.750397,"category":"Vietinbank","city":"B\u00ecnh D\u01b0\u01a1ng","state":null,"postal":null,"phone":null,"address":"S\u1ed1 29 \u0111\u01b0\u1eddng Xuy\u00ean \u00c1, KP B\u00ecnh \u0110\u01b0\u1eddng, ph\u01b0\u1eddng An B\u00ecnh, th\u1ecb x\u00e3 D\u0129 An, t\u1ec9nh B\u00ecnh D\u01b0\u01a1ng"},{"id":1611,"name":"PGD T\u00e2n Ph\u01b0\u1edbc Kh\u00e1nh","lat":11.024875,"lng":106.718933,"category":"Vietinbank","city":"B\u00ecnh D\u01b0\u01a1ng","state":null,"postal":null,"phone":null,"address":"S\u1ed1 3 \u0110T746 Khu ph\u1ed1 Kh\u00e1nh Th\u1ea1nh, x\u00e3 T\u00e2n Ph\u01b0\u1edbc Kh\u00e1nh, huy\u1ec7n T\u00e2n Uy\u00ean, t\u1ec9nh B\u00ecnh D\u01b0\u01a1ng"},{"id":1612,"name":"CN B\u00ecnh D\u01b0\u01a1ng","lat":10.982758,"lng":106.666717,"category":"Vietinbank","city":"B\u00ecnh D\u01b0\u01a1ng","state":null,"postal":null,"phone":null,"address":"S\u1ed1 330 \u0111\u1ea1i l\u1ed9 B\u00ecnh D\u01b0\u01a1ng, ph\u01b0\u1eddng Ph\u00fa Ho\u00e0, TP. Th\u1ee7 D\u1ea7u M\u1ed9t, t\u1ec9nh B\u00ecnh D\u01b0\u01a1ng"},{"id":1613,"name":"PGD L\u00e1i thi\u00eau","lat":10.903125,"lng":106.699167,"category":"Vietinbank","city":"Long An","state":null,"postal":null,"phone":null,"address":"S\u1ed1 42 Phan \u0110\u00ecnh Ph\u00f9ng, ph\u01b0\u1eddng L\u00e1i Thi\u00eau, th\u1ecb x\u00e3 Thu\u1eadn An, t\u1ec9nh B\u00ecnh D\u01b0\u01a1ng"},{"id":1614,"name":"PGD \u0110\u1ea1i Ph\u01b0\u1edbc","lat":10.737327,"lng":106.814559,"category":"Vietinbank","city":"Long An","state":null,"postal":null,"phone":null,"address":"\u0110\u01b0\u1eddng 769, x\u00e3 \u0110\u1ea1i Ph\u01b0\u1edbc, huy\u1ec7n Nh\u01a1n Tr\u1ea1ch, t\u1ec9nh \u0110\u1ed3ng Nai"},{"id":1615,"name":"CN Nh\u01a1n Tr\u1ea1ch","lat":10.728167,"lng":106.902272,"category":"Vietinbank","city":"Long An","state":null,"postal":null,"phone":null,"address":"\u0110\u01b0\u1eddng T\u00f4n \u0110\u1ee9c Th\u1eafng, x\u00e3 Ph\u00fa H\u1ed9i, huy\u1ec7n Nh\u01a1n Tr\u1ea1ch, t\u1ec9nh \u0110\u1ed3ng Nai"},{"id":1616,"name":"PGD An B\u00ecnh","lat":10.969129,"lng":106.90126,"category":"Vietinbank","city":"\u0110\u1ed3ng Nai","state":null,"postal":null,"phone":null,"address":"Khu ph\u1ed1 10, ph\u01b0\u1eddng An B\u00ecnh, TP. Bi\u00ean H\u00f2a, t\u1ec9nh \u0110\u1ed3ng Nai"},{"id":1617,"name":"PGD Thanh B\u00ecnh","lat":10.946465,"lng":106.816765,"category":"Vietinbank","city":"\u0110\u1ed3ng Nai","state":null,"postal":null,"phone":null,"address":"Chung c\u01b0 Thanh B\u00ecnh, Thanh B\u00ecnh, Th\u00e0nh ph\u1ed1 Bi\u00ean H\u00f2a, \u0110\u1ed3ng Nai, Viet Nam"},{"id":1618,"name":"PGD Long Kh\u00e1nh","lat":10.92962,"lng":107.242879,"category":"Vietinbank","city":"Long An","state":null,"postal":null,"phone":null,"address":"N35 \u0111\u01b0\u1eddng H\u00f9ng V\u01b0\u01a1ng, th\u1ecb x\u00e3 Long Kh\u00e1nh, t\u1ec9nh \u0110\u1ed3ng Nai"},{"id":1619,"name":"CN KCN Bi\u00ean Ho\u00e0","lat":10.951091,"lng":106.871497,"category":"Vietinbank","city":"Long An","state":null,"postal":null,"phone":null,"address":"Ng\u00e3 t\u01b0 AMATA, Xa l\u1ed9 H\u00e0 N\u1ed9i, ph\u01b0\u1eddng Long B\u00ecnh, TP. Bi\u00ean H\u00f2a, t\u1ec9nh \u0110\u1ed3ng Nai"},{"id":1620,"name":"PGD Long Th\u00e0nh","lat":10.790233,"lng":106.950518,"category":"Vietinbank","city":"Long An","state":null,"postal":null,"phone":null,"address":"QL51A, khu Ph\u01b0\u1edbc H\u1ea3i, th\u1ecb tr\u1ea5n Long Th\u00e0nh, huy\u1ec7n Long Th\u00e0nh, t\u1ec9nh \u0110\u1ed3ng Nai"},{"id":1621,"name":"PGD Hi\u1ec7p Ph\u01b0\u1edbc","lat":10.645222,"lng":106.735425,"category":"Vietinbank","city":"Long An","state":null,"postal":null,"phone":null,"address":"S\u1ed1 6 l\u00f4 A, KCN Hi\u1ec7p Ph\u01b0\u1edbc, x\u00e3 Long Th\u1edbi, huy\u1ec7n Nh\u00e0 B\u00e8, TP. H\u1ed3 Ch\u00ed Minh"},{"id":1622,"name":"PGD \u0110\u1ed3ng Kh\u1edfi","lat":10.973642,"lng":106.85206,"category":"Vietinbank","city":"Long An","state":null,"postal":null,"phone":null,"address":"S\u1ed1 102 \u0111\u01b0\u1eddng \u0110\u1ed3ng Kh\u1edfi, ph\u01b0\u1eddng T\u00e2n Phong, TP. Bi\u00ean H\u00f2a, t\u1ec9nh \u0110\u1ed3ng Nai"},{"id":1623,"name":"PGD Tr\u1ea3ng Bom","lat":10.963153,"lng":106.910894,"category":"Vietinbank","city":"Long An","state":null,"postal":null,"phone":null,"address":"S\u1ed1 179 \u0111\u01b0\u1eddng 29\/4, khu ph\u1ed1 5, th\u1ecb tr\u1ea5n Tr\u1ea3ng Bom, huy\u1ec7n Tr\u1ea3ng Bom, t\u1ec9nh \u0110\u1ed3ng Nai"},{"id":1624,"name":"PGD K\u1ef3 Son","lat":10.506556,"lng":106.468563,"category":"Vietinbank","city":"Long An","state":null,"postal":null,"phone":null,"address":"\u1ea4p 5, x\u00e3 B\u00ecnh Qu\u1edbi, huy\u1ec7n Ch\u00e2u Th\u00e0nh, t\u1ec9nh Long An"},{"id":1625,"name":"PGD Ph\u01b0\u1edbc L\u1ee3i","lat":10.639923,"lng":106.533665,"category":"Vietinbank","city":"Long An","state":null,"postal":null,"phone":null,"address":"S\u1ed1 02 t\u1ec9nh l\u1ed9 835, x\u00e3 Ph\u01b0\u1edbc L\u1ee3i, huy\u1ec7n B\u1ebfn L\u1ee9c, t\u1ec9nh Long An"},{"id":1626,"name":"CN Long An","lat":10.53269,"lng":106.418063,"category":"Vietinbank","city":"Long An","state":null,"postal":null,"phone":null,"address":"S\u1ed1 08 Ch\u00e2u Th\u1ecb Kim, ph\u01b0\u1eddng 3, TP. T\u00e2n An, t\u1ec9nh Long An"},{"id":1627,"name":"PGD Ch\u00e2u Th\u1ecb Kim","lat":10.53269,"lng":106.418063,"category":"Vietinbank","city":"Long An","state":null,"postal":null,"phone":null,"address":"S\u1ed1 08 Ch\u00e2u Th\u1ecb Kim, ph\u01b0\u1eddng 3, TP. T\u00e2n An, t\u1ec9nh Long An"},{"id":1628,"name":"PGD Th\u1ee7 Th\u1eeba","lat":10.612039,"lng":106.40231,"category":"Vietinbank","city":"Long An","state":null,"postal":null,"phone":null,"address":"S\u1ed1 1 \u0111\u01b0\u1eddng 834, L\u00f4 A, th\u1ecb tr\u1ea5n Th\u1ee7 Th\u1eeba, huy\u1ec7n Th\u1ee7 Th\u1eeba, t\u1ec9nh Long An"},{"id":1629,"name":"PGD T\u00e2n Th\u00e0nh","lat":10.788044,"lng":106.636997,"category":"Vietinbank","city":"Long An","state":null,"postal":null,"phone":null,"address":"S\u1ed1 630 L\u0169y B\u00e1n B\u00edch, ph\u01b0\u1eddng T\u00e2n Th\u00e0nh, qu\u1eadn T\u00e2n Ph\u00fa, TP. H\u1ed3 Ch\u00ed Minh"},{"id":1630,"name":"PGD C\u1ea7n \u0110\u01b0\u1edbc","lat":10.349684,"lng":106.482432,"category":"Vietinbank","city":"Long An","state":null,"postal":null,"phone":null,"address":"S\u1ed1 19A, Qu\u1ed1c l\u1ed9 50, th\u1ecb tr\u1ea5n C\u1ea7n \u0110\u01b0\u1edbc, huy\u1ec7n C\u1ea7n \u0110\u01b0\u1edbc, t\u1ec9nh Long An"},{"id":1631,"name":"PGD Ch\u00e2u Th\u00e0nh","lat":10.454053,"lng":106.469243,"category":"Vietinbank","city":"Long An","state":null,"postal":null,"phone":null,"address":"S\u1ed1 219 \u0111\u01b0\u1eddng 827, th\u1ecb tr\u1ea5n T\u1ea7m Vu, huy\u1ec7n Ch\u00e2u Th\u00e0nh, t\u1ec9nh Long An"},{"id":1632,"name":"CN B\u1ebfn L\u1ee9c","lat":10.638771,"lng":106.485431,"category":"Vietinbank","city":"Long An","state":null,"postal":null,"phone":null,"address":"S\u1ed1 234 V\u00f5 C\u00f4ng T\u1ed3n, th\u1ecb tr\u1ea5n B\u1ebfn L\u1ee9c, huy\u1ec7n B\u1ebfn L\u1ee9c, t\u1ec9nh Long An"},{"id":1633,"name":"PGD \u0110\u1ee9c H\u00f2a Nam","lat":10.829318,"lng":106.469925,"category":"Vietinbank","city":"Long An","state":null,"postal":null,"phone":null,"address":"S\u1ed1 292 \u1ea4p B\u00ecnh T\u1ea3 1, x\u00e3 \u0110\u1ee9c H\u00f2a H\u1ea1, huy\u1ec7n \u0110\u1ee9c H\u00f2a, t\u1ec9nh Long An"},{"id":1634,"name":"PGD C\u00f4n \u0110\u1ea3o","lat":8.683831,"lng":106.608412,"category":"Vietinbank","city":"Long An","state":null,"postal":null,"phone":null,"address":"S\u1ed1 02 L\u00ea Du\u1ea9n, huy\u1ec7n C\u00f4n \u0110\u1ea3o, t\u1ec9nh B\u00e0 R\u1ecba - V\u0169ng T\u00e0u"},{"id":1635,"name":"PGD B\u00e0 R\u1ecba","lat":10.48459,"lng":107.187039,"category":"Vietinbank","city":"Long An","state":null,"postal":null,"phone":null,"address":"S\u1ed1 09 Tr\u01b0\u1eddng Chinh, ph\u01b0\u1eddng Ph\u01b0\u1edbc Trung, th\u1ecb x\u00e3 B\u00e0 R\u1ecba, t\u1ec9nh B\u00e0 R\u1ecba - V\u0169ng T\u00e0u"},{"id":1636,"name":"CN B\u00e0 R\u1ecba - V\u0169ng T\u00e0u","lat":10.348073,"lng":107.075459,"category":"Vietinbank","city":"Long An","state":null,"postal":null,"phone":null,"address":"S\u1ed1 10 Tr\u01b0ng Tr\u1eafc, Ph\u01b0\u1eddng 1, TP. V\u0169ng T\u00e0u, t\u1ec9nh B\u00e0 R\u1ecba - V\u0169ng T\u00e0u"},{"id":1637,"name":"PGD R\u1ea1ch D\u1eeba","lat":10.398465,"lng":107.115331,"category":"Vietinbank","city":"Long An","state":null,"postal":null,"phone":null,"address":"S\u1ed1 1003F B\u00ecnh Gi\u00e3, ph\u01b0\u1eddng R\u1ea1ch D\u1eeba, TP. V\u0169ng T\u00e0u, t\u1ec9nh B\u00e0 R\u1ecba - V\u0169ng T\u00e0u"},{"id":1638,"name":"PGD Ph\u01b0\u1edbc Th\u1eafng","lat":10.411927,"lng":107.137165,"category":"Vietinbank","city":"Long An","state":null,"postal":null,"phone":null,"address":"S\u1ed1 1112 \u0111\u01b0\u1eddng 30 Th\u00e1ng 4, ph\u01b0\u1eddng 11, TP. V\u0169ng T\u00e0u, t\u1ec9nh B\u00e0 R\u1ecba - V\u0169ng T\u00e0u"},{"id":1639,"name":"PGD T\u00e2n Th\u00e0nh","lat":10.588686,"lng":107.054965,"category":"Vietinbank","city":"B\u00e0 R\u1ecba - V\u0169ng T\u00e0u","state":null,"postal":null,"phone":null,"address":"S\u1ed1 138 \u0111\u01b0\u1eddng \u0110\u1ed9c L\u1eadp - khu, th\u1ecb Tr\u1ea5n Ph\u00fa M\u1ef9, huy\u1ec7n T\u00e2n Th\u00e0nh, t\u1ec9nh B\u00e0 R\u1ecba - V\u0169ng T\u00e0u"},{"id":1640,"name":"PGD Ph\u01b0\u1edbc T\u1ec9nh","lat":10.411866,"lng":107.192766,"category":"Vietinbank","city":"Long An","state":null,"postal":null,"phone":null,"address":"S\u1ed1 19, t\u1ed5 6, \u1ea5p T\u00e2n L\u1eadp, x\u00e3 Ph\u01b0\u1edbc T\u1ec9nh, huy\u1ec7n Long \u0110i\u1ec1n, t\u1ec9nh B\u00e0 R\u1ecba - V\u0169ng T\u00e0u"},{"id":1641,"name":"PGD Xuy\u00ean M\u1ed9c","lat":10.538014,"lng":107.409543,"category":"Vietinbank","city":"Long An","state":null,"postal":null,"phone":null,"address":"S\u1ed1 292 ph\u1ed1 Th\u1ea1nh S\u01a1n, th\u1ecb tr\u1ea5n Ph\u01b0\u1edbc B\u1eedu, huy\u1ec7n Xuy\u00ean M\u1ed9c, t\u1ec9nh B\u00e0 R\u1ecba - V\u0169ng T\u00e0u"},{"id":1642,"name":"PGD Th\u1eafng Nh\u1ea5t","lat":10.398084,"lng":107.111878,"category":"Vietinbank","city":"Long An","state":null,"postal":null,"phone":null,"address":"S\u1ed1 475 \u0111\u01b0\u1eddng 30 th\u00e1ng 4, ph\u01b0\u1eddng R\u1ea1ch D\u1eeba, TP. V\u0169ng T\u00e0u, t\u1ec9nh B\u00e0 R\u1ecba - V\u0169ng T\u00e0u"},{"id":1643,"name":"PGD Nguy\u1ec5n An Ninh","lat":10.365576,"lng":107.089845,"category":"Vietinbank","city":"Long An","state":null,"postal":null,"phone":null,"address":"S\u1ed1 503B Nguy\u1ec5n An Ninh, ph\u01b0\u1eddng 9, TP. V\u0169ng T\u00e0u, t\u1ec9nh B\u00e0 R\u1ecba - V\u0169ng T\u00e0u"},{"id":1647,"name":"PGD T\u00e2n An","lat":10.537069,"lng":106.413458,"category":"Vietinbank","city":"Long An","state":null,"postal":null,"phone":null,"address":"S\u1ed1 30 Nguy\u1ec5n Trung Tr\u1ef1c, ph\u01b0\u1eddng 2, TP. T\u00e2n An, t\u1ec9nh Long An"},{"id":1649,"name":"PGD C\u1ea7n Giu\u1ed9c","lat":10.604355,"lng":106.67187,"category":"Vietinbank","city":"Long An","state":null,"postal":null,"phone":null,"address":"S\u1ed1 79-81, khu ph\u1ed1 2, th\u1ecb tr\u1ea5n C\u1ea7n Giu\u1ed9c, huy\u1ec7n C\u1ea7n Giu\u1ed9c, t\u1ec9nh Long An"},{"id":1651,"name":"PGD M\u1ed9c H\u00f3a","lat":10.778717,"lng":105.934574,"category":"Vietinbank","city":"Long An","state":null,"postal":null,"phone":null,"address":"S\u1ed1 42 H\u00f9ng V\u01b0\u01a1ng, ph\u01b0\u1eddng I, huy\u1ec7n Ki\u1ebfn T\u01b0\u1eddng, t\u1ec9nh Long An"},{"id":1653,"name":"PGD \u0110\u1ee9c H\u00f2a","lat":10.907031,"lng":106.390534,"category":"Vietinbank","city":"Long An","state":null,"postal":null,"phone":null,"address":"S\u1ed1 8D \u00d4 3, Khu A, th\u1ecb tr\u1ea5n H\u1eadu Ngh\u0129a, huy\u1ec7n \u0110\u1ee9c H\u00f2a, t\u1ec9nh Long An"},{"id":1661,"name":"PGD Ph\u00fa Trung","lat":10.78273,"lng":106.642481,"category":"Vietinbank","city":"H\u1ed3 Ch\u00ed Minh","state":null,"postal":null,"phone":null,"address":"S\u1ed1 575 \u00c2u C\u01a1, ph\u01b0\u1eddng Ph\u00fa Trung, qu\u1eadn T\u00e2n Ph\u00fa, TP. H\u1ed3 Ch\u00ed Minh"},{"id":1663,"name":"PGD H\u01b0ng Ph\u00fa","lat":10.750242,"lng":106.678571,"category":"Vietinbank","city":"H\u1ed3 Ch\u00ed Minh","state":null,"postal":null,"phone":null,"address":"S\u1ed1 196-202 \u0111\u01b0\u1eddng H\u01b0ng Ph\u00fa, ph\u01b0\u1eddng 8, qu\u1eadn 8, TP. H\u1ed3 Ch\u00ed Minh"},{"id":1666,"name":"PGD Phan Huy \u00cdch","lat":10.829691,"lng":106.632697,"category":"Vietinbank","city":"Long An","state":null,"postal":null,"phone":null,"address":"S\u1ed1 89 Phan Huy \u00cdch, ph\u01b0\u1eddng 15, qu\u1eadn T\u00e2n B\u00ecnh, TP. H\u1ed3 Ch\u00ed Minh"},{"id":1668,"name":"PGD \u00c2u C\u01a1","lat":10.793366,"lng":106.639148,"category":"Vietinbank","city":"Long An","state":null,"postal":null,"phone":null,"address":"S\u1ed1 129 \u00c2u C\u01a1, ph\u01b0\u1eddng 14, qu\u1eadn T\u00e2n B\u00ecnh, TP. H\u1ed3 Ch\u00ed Minh"},{"id":1674,"name":"PGD Ph\u00fa L\u00e2m","lat":10.752185,"lng":106.631429,"category":"Vietinbank","city":"Long An","state":null,"postal":null,"phone":null,"address":"S\u1ed1 36A Kinh D\u01b0\u01a1ng V\u01b0\u01a1ng, ph\u01b0\u1eddng 13, qu\u1eadn 6, TP. H\u1ed3 Ch\u00ed Minh"},{"id":1675,"name":"PGD An Nh\u01a1n","lat":10.848841,"lng":106.666695,"category":"Vietinbank","city":"Long An","state":null,"postal":null,"phone":null,"address":"S\u1ed1 876 L\u00ea \u0110\u1ee9c Th\u1ecd, ph\u01b0\u1eddng 15, qu\u1eadn G\u00f2 V\u1ea5p, TP. H\u1ed3 Ch\u00ed Minh"},{"id":1676,"name":"PGD Hi\u1ec7p Th\u00e0nh","lat":10.876323,"lng":106.647763,"category":"Vietinbank","city":"Long An","state":null,"postal":null,"phone":null,"address":"S\u1ed1 34A\/2 Nguy\u1ec5n \u1ea2nh Th\u1ee7, ph\u01b0\u1eddng Hi\u1ec7p Th\u00e0nh, qu\u1eadn 12, TP. H\u1ed3 Ch\u00ed Minh"},{"id":1677,"name":"PGD Trung Ch\u00e1nh","lat":10.864207,"lng":106.613101,"category":"Vietinbank","city":"Long An","state":null,"postal":null,"phone":null,"address":"S\u1ed1143\/1 Nguy\u1ec5n \u1ea2nh Th\u1ee7, x\u00e3 Trung Ch\u00e1nh, huy\u1ec7n H\u00f3c M\u00f4n, TP. H\u1ed3 Ch\u00ed Minh"},{"id":1678,"name":"PGD Ch\u1ee3 C\u1ea7u","lat":10.838859,"lng":106.63725,"category":"Vietinbank","city":"Long An","state":null,"postal":null,"phone":null,"address":"S\u1ed1 314A Phan Huy \u00cdch, ph\u01b0\u1eddng 12, qu\u1eadn G\u00f2 V\u1ea5p, TP. H\u1ed3 Ch\u00ed Minh"},{"id":1679,"name":"PGD Nguy\u1ec5n V\u0103n Nghi","lat":10.826368,"lng":106.682286,"category":"Vietinbank","city":"Long An","state":null,"postal":null,"phone":null,"address":"S\u1ed1 232 Nguy\u1ec5n V\u0103n Nghi, ph\u01b0\u1eddng 7, qu\u1eadn G\u00f2 V\u1ea5p, TP. H\u1ed3 Ch\u00ed Minh"},{"id":1680,"name":"PGD C\u00e2y Tr\u00e2m","lat":10.845384,"lng":106.645485,"category":"Vietinbank","city":"Long An","state":null,"postal":null,"phone":null,"address":"S\u1ed1 42 \u0111\u01b0\u1eddng s\u1ed1 10, ph\u01b0\u1eddng 9, qu\u1eadn G\u00f2 V\u1ea5p, TP. H\u1ed3 Ch\u00ed Minh"},{"id":1681,"name":"PGD H\u1ea1nh Th\u00f4ng T\u00e2y","lat":10.826931,"lng":106.678947,"category":"Vietinbank","city":"Long An","state":null,"postal":null,"phone":null,"address":"S\u1ed1 22A Quang Trung, ph\u01b0\u1eddng 10, qu\u1eadn G\u00f2 V\u1ea5p, TP. H\u1ed3 Ch\u00ed Minh"},{"id":1682,"name":"PGD G\u00f2 V\u1ea5p","lat":10.829026,"lng":106.682406,"category":"Vietinbank","city":"Long An","state":null,"postal":null,"phone":null,"address":"S\u1ed1 821 Phan V\u0103n Tr\u1ecb, ph\u01b0\u1eddng 7, qu\u1eadn G\u00f2 V\u1ea5p, TP. H\u1ed3 Ch\u00ed Minh"},{"id":1683,"name":"PGD T\u00e2n Ph\u00fa","lat":10.775452,"lng":106.648516,"category":"Vietinbank","city":"H\u1ed3 Ch\u00ed Minh","state":null,"postal":null,"phone":null,"address":"S\u1ed1 630 L\u1ea1c long Qu\u00e2n, ph\u01b0\u1eddng 5, qu\u1eadn 11, TP. H\u1ed3 Ch\u00ed Minh"},{"id":1684,"name":"PGD L\u0169y B\u00e1n B\u00edch","lat":10.77286,"lng":106.632348,"category":"Vietinbank","city":"H\u1ed3 Ch\u00ed Minh","state":null,"postal":null,"phone":null,"address":"S\u1ed1 272-272A L\u0169y B\u00e1n B\u00edch, ph\u01b0\u1eddng.H\u00f2a Th\u1ea1nh, qu\u1eadn T\u00e2n Ph\u00fa, TP. H\u1ed3 Ch\u00ed Minh"},{"id":1685,"name":"PGD Phan V\u0103n H\u1edbn","lat":10.828829,"lng":106.617301,"category":"Vietinbank","city":"Long An","state":null,"postal":null,"phone":null,"address":"S\u1ed1 145 Phan V\u0103n H\u1edbn, ph\u01b0\u1eddng T\u00e2n Th\u1edbi Nh\u1ea5t, qu\u1eadn 12, TP. H\u1ed3 Ch\u00ed Minh"},{"id":1686,"name":"PGD B\u1ea3y Hi\u1ec1n","lat":10.796562,"lng":106.644145,"category":"Vietinbank","city":"Long An","state":null,"postal":null,"phone":null,"address":"S\u1ed1 45 Tr\u01b0\u1eddng Chinh, ph\u01b0\u1eddng 11, qu\u1eadn T\u00e2n B\u00ecnh, TP. H\u1ed3 Ch\u00ed Minh"},{"id":1687,"name":"PGD L\u00ea Tr\u1ecdng T\u1ea5n","lat":10.8084,"lng":106.617997,"category":"Vietinbank","city":"Long An","state":null,"postal":null,"phone":null,"address":"S\u1ed1 454A L\u00ea Tr\u1ecdng T\u1ea5n, ph\u01b0\u1eddng T\u00e2y Th\u1ea1nh, qu\u1eadn T\u00e2n Ph\u00fa, TP. H\u1ed3 Ch\u00ed Minh"},{"id":1688,"name":"PGD M\u1ef9 Ph\u01b0\u1edbc","lat":11.137915,"lng":106.611447,"category":"Vietinbank","city":"Long An","state":null,"postal":null,"phone":null,"address":"T5 KP4, th\u1ecb tr\u1ea5n M\u1ef9 Ph\u01b0\u1edbc, huy\u1ec7n B\u1ebfn C\u00e1t, t\u1ec9nh B\u00ecnh D\u01b0\u01a1ng"},{"id":1689,"name":"PGD Ph\u00fa Gi\u00e1o","lat":11.288496,"lng":106.793077,"category":"Vietinbank","city":"Long An","state":null,"postal":null,"phone":null,"address":"\u0110T741 KP9, th\u1ecb tr\u1ea5n Ph\u01b0\u1edbc V\u0129nh, huy\u1ec7n Ph\u00fa Gi\u00e1o, t\u1ec9nh B\u00ecnh D\u01b0\u01a1ng"},{"id":1690,"name":"CN \u0110\u1ed3ng Nai","lat":10.950918,"lng":106.820661,"category":"Vietinbank","city":"Long An","state":null,"postal":null,"phone":null,"address":"S\u1ed1 77D H\u01b0ng \u0110\u1ea1o V\u01b0\u01a1ng, TP. Bi\u00ean H\u00f2a, t\u1ec9nh \u0110\u1ed3ng Nai"},{"id":1691,"name":"PGD Tam Hi\u1ec7p","lat":10.94016,"lng":106.867634,"category":"Vietinbank","city":"Long An","state":null,"postal":null,"phone":null,"address":"S\u1ed1 32 Ph\u1ea1m V\u0103n Thu\u1eadn, ph\u01b0\u1eddng Tam Hi\u1ec7p, TP. Bi\u00ean H\u00f2a, t\u1ec9nh \u0110\u1ed3ng Nai"},{"id":1692,"name":"PGD T\u00e2n H\u00f2a","lat":10.968373,"lng":106.912346,"category":"Vietinbank","city":"Long An","state":null,"postal":null,"phone":null,"address":"S\u1ed1 21\/3 khu ph\u1ed1 8, ph\u01b0\u1eddng T\u00e2n Bi\u00ean, TP. Bi\u00ean H\u00f2a, t\u1ec9nh \u0110\u1ed3ng Nai"},{"id":1693,"name":"PGD B\u1eedu H\u00f2a","lat":10.913362,"lng":106.827396,"category":"Vietinbank","city":"Long An","state":null,"postal":null,"phone":null,"address":"S\u1ed1 248 B\u00f9i H\u1eefu Ngh\u0129a, ph\u01b0\u1eddng B\u1eedu H\u00f2a, TP. Bi\u00ean H\u00f2a, t\u1ec9nh \u0110\u1ed3ng Nai"},{"id":1694,"name":"PGD T\u00e2n Hi\u1ec7p","lat":10.959423,"lng":106.856118,"category":"Vietinbank","city":"\u0110\u1ed3ng Nai","state":null,"postal":null,"phone":null,"address":"S\u1ed1 3\/16 \u0111\u01b0\u1eddng \u0110\u1ed3ng Kh\u1edfi, ph\u01b0\u1eddng Tam Hi\u1ec7p, TP. Bi\u00ean H\u00f2a, t\u1ec9nh \u0110\u1ed3ng Nai"},{"id":1695,"name":"PGD B\u00ecnh \u0110a","lat":10.958134,"lng":106.833337,"category":"Vietinbank","city":"Long An","state":null,"postal":null,"phone":null,"address":"S\u1ed1 240\/3 Ph\u1ea1m V\u0103n Thu\u1eadn, ph\u01b0\u1eddng B\u00ecnh \u0110a, TP. Bi\u00ean H\u00f2a, t\u1ec9nh \u0110\u1ed3ng Nai"},{"id":1696,"name":"PGD H\u1ed1 Nai","lat":10.966871,"lng":106.913598,"category":"Vietinbank","city":"Long An","state":null,"postal":null,"phone":null,"address":"S\u1ed1 2\/3 Qu\u1ed1c l\u1ed9 1A, ph\u01b0\u1eddng T\u00e2n H\u00f2a,, TP. Bi\u00ean H\u00f2a, t\u1ec9nh \u0110\u1ed3ng Nai"},{"id":1697,"name":"PGD Th\u1ed1ng Nh\u1ea5t","lat":10.946667,"lng":106.825873,"category":"Vietinbank","city":"Long An","state":null,"postal":null,"phone":null,"address":"S\u1ed1 R107-108 \u0111\u01b0\u1eddng V\u00f5 Th\u1ecb S\u00e1u, ph\u01b0\u1eddng Th\u1ed1ng Nh\u1ea5t, TP. Bi\u00ean H\u00f2a, t\u1ec9nh \u0110\u1ed3ng Nai"},{"id":1698,"name":"PGD T\u00e2n Phong","lat":10.968675,"lng":106.861964,"category":"Vietinbank","city":"Long An","state":null,"postal":null,"phone":null,"address":"S\u1ed1 93\/1 Nguy\u1ec5n \u00c1i Qu\u1ed1c, khu ph\u1ed1 8, ph\u01b0\u1eddng T\u00e2n Phong, TP. Bi\u00ean H\u00f2a, t\u1ec9nh \u0110\u1ed3ng Nai"},{"id":1699,"name":"PGD Sao Mai","lat":10.370021,"lng":107.078457,"category":"Vietinbank","city":"Long An","state":null,"postal":null,"phone":null,"address":"S\u1ed1 52 Nguy\u1ec5n An Ninh, ph\u01b0\u1eddng 7, TP. V\u0169ng T\u00e0u, t\u1ec9nh B\u00e0 R\u1ecba - V\u0169ng T\u00e0u"},{"id":1700,"name":"PGD Ch\u1ee3 M\u1edbi","lat":10.345988,"lng":107.084067,"category":"Vietinbank","city":"Long An","state":null,"postal":null,"phone":null,"address":"S\u1ed1 77 Nam K\u1ef3 Kh\u1edfi Ngh\u0129a, ph\u01b0\u1eddng 3, TP. V\u0169ng T\u00e0u, t\u1ec9nh B\u00e0 R\u1ecba - V\u0169ng T\u00e0u"},{"id":1701,"name":"PGD Nguy\u1ec5n V\u0103n Tr\u1ed7i","lat":10.795858,"lng":106.674565,"category":"Vietinbank","city":"H\u1ed3 Ch\u00ed Minh","state":null,"postal":null,"phone":null,"address":"S\u1ed1 173A Nguy\u1ec5n V\u0103n Tr\u1ed7i, ph\u01b0\u1eddng 1, qu\u1eadn Ph\u00fa Nhu\u1eadn, TP. H\u1ed3 Ch\u00ed Minh"},{"id":1702,"name":"CN TP. H\u1ed3 Ch\u00ed Minh","lat":10.770373,"lng":106.703516,"category":"Vietinbank","city":"Long An","state":null,"postal":null,"phone":null,"address":"S\u1ed1 79A H\u00e0m Nghi, ph\u01b0\u1eddng Nguy\u1ec5n Th\u00e1i B\u00ecnh, qu\u1eadn 1, TP. H\u1ed3 Ch\u00ed Minh"},{"id":1703,"name":"PGD B\u1ebfn Th\u00e0nh","lat":10.772187,"lng":106.697564,"category":"Vietinbank","city":"H\u1ed3 Ch\u00ed Minh","state":null,"postal":null,"phone":null,"address":"S\u1ed1 19 Phan Chu Trinh, ph\u01b0\u1eddng B\u1ebfn Th\u00e0nh, qu\u1eadn 1, TP. H\u1ed3 Ch\u00ed Minh"},{"id":1704,"name":"PGD Nguy\u1ec5n Hu\u1ec7","lat":10.775304,"lng":106.704495,"category":"Vietinbank","city":"H\u1ed3 Ch\u00ed Minh","state":null,"postal":null,"phone":null,"address":"S\u1ed1 60-62 M\u1ea1c Th\u1ecb B\u01b0\u1edfi, ph\u01b0\u1eddng B\u1ebfn Ngh\u00e9, qu\u1eadn 1, TP. H\u1ed3 Ch\u00ed Minh"},{"id":1705,"name":"PGD Tr\u01b0\u1eddng S\u01a1n","lat":10.805122,"lng":106.664754,"category":"Vietinbank","city":"H\u1ed3 Ch\u00ed Minh","state":null,"postal":null,"phone":null,"address":"S\u1ed1 34 Phan \u0110\u00ecnh Gi\u00f3t, ph\u01b0\u1eddng 2, qu\u1eadn T\u00e2n B\u00ecnh, TP. H\u1ed3 Ch\u00ed Minh"},{"id":1706,"name":"PGD L\u00fd Ch\u00ednh Th\u1eafng","lat":10.782064,"lng":106.683243,"category":"Vietinbank","city":"H\u1ed3 Ch\u00ed Minh","state":null,"postal":null,"phone":null,"address":"S\u1ed1 200Bis L\u00fd Ch\u00ednh Th\u1eafng, ph\u01b0\u1eddng 9, qu\u1eadn 3, TP. H\u1ed3 Ch\u00ed Minh"},{"id":1707,"name":"PGD Ba Th\u00e1ng Hai","lat":10.769234,"lng":106.669536,"category":"Vietinbank","city":"H\u1ed3 Ch\u00ed Minh","state":null,"postal":null,"phone":null,"address":"S\u1ed1 392-394 \u0111\u01b0\u1eddng 3 th\u00e1ng 2, ph\u01b0\u1eddng 12, qu\u1eadn 10, TP. H\u1ed3 Ch\u00ed Minh"},{"id":1708,"name":"PGD Nguy\u1ec5n Tr\u1ecdng Tuy\u1ec3n","lat":10.797943,"lng":106.670963,"category":"Vietinbank","city":"H\u1ed3 Ch\u00ed Minh","state":null,"postal":null,"phone":null,"address":"S\u1ed1 259A Nguy\u1ec5n Tr\u1ecdng Tuy\u1ec3n, ph\u01b0\u1eddng 10, qu\u1eadn Ph\u00fa Nhu\u1eadn, TP. H\u1ed3 Ch\u00ed Minh"},{"id":1709,"name":"PGD H\u00e0ng Xanh","lat":10.800485,"lng":106.708991,"category":"Vietinbank","city":"H\u1ed3 Ch\u00ed Minh","state":null,"postal":null,"phone":null,"address":"S\u1ed1 400A-402 \u0111\u01b0\u1eddng \u0110i\u1ec7n Bi\u00ean Ph\u1ee7, ph\u01b0\u1eddng 17, qu\u1eadn B\u00ecnh Th\u1ea1nh, TP. H\u1ed3 Ch\u00ed Minh."},{"id":1710,"name":"PGD Th\u00e0nh Th\u00e1i","lat":10.774978,"lng":106.664075,"category":"Vietinbank","city":"H\u1ed3 Ch\u00ed Minh","state":null,"postal":null,"phone":null,"address":"S\u1ed1 145 Th\u00e0nh Th\u00e1i, ph\u01b0\u1eddng 14, qu\u1eadn 10, TP. H\u1ed3 Ch\u00ed Minh"},{"id":1711,"name":"PGD T\u00e2n S\u01a1n Nh\u1ea5t","lat":10.818463,"lng":106.658824,"category":"Vietinbank","city":"H\u1ed3 Ch\u00ed Minh","state":null,"postal":null,"phone":null,"address":"T\u1ea7ng 1, s\u1ea3nh ga \u0111i qu\u1ed1c N\u1ed9i, s\u00e2n bay T\u00e2n S\u01a1n Nh\u1ea5t, qu\u1eadn T\u00e2n B\u00ecnh, TP. H\u1ed3 Ch\u00ed Minh"},{"id":1713,"name":"PGD Nguy\u1ec5n Th\u1ecb Minh Khai","lat":10.78515,"lng":106.700152,"category":"Vietinbank","city":"H\u1ed3 Ch\u00ed Minh","state":null,"postal":null,"phone":null,"address":"S\u1ed1 20 Nguy\u1ec5n Th\u1ecb Minh Khai, ph\u01b0\u1eddng \u0110a Kao, qu\u1eadn 1, TP. H\u1ed3 Ch\u00ed Minh"},{"id":1714,"name":"PGD T\u00e2n Thu\u1eadn T\u00e2y","lat":10.755676,"lng":106.722023,"category":"Vietinbank","city":"H\u1ed3 Ch\u00ed Minh","state":null,"postal":null,"phone":null,"address":"S\u1ed1 36 Hu\u1ef3nh T\u1ea5n Ph\u00e1t, ph\u01b0\u1eddng T\u00e2n Thu\u1eadn T\u00e2y, qu\u1eadn 7, TP. H\u1ed3 Ch\u00ed Minh"},{"id":1715,"name":"PGD Hi\u1ec7p B\u00ecnh Ph\u01b0\u1edbc","lat":10.868014,"lng":106.720121,"category":"Vietinbank","city":"H\u1ed3 Ch\u00ed Minh","state":null,"postal":null,"phone":null,"address":"S\u1ed1 827 qu\u1ed1c l\u1ed9 13, ph\u01b0\u1eddng Hi\u1ec7p B\u00ecnh Ph\u01b0\u1edbc, qu\u1eadn Th\u1ee7 \u0110\u1ee9c, TP. H\u1ed3 Ch\u00ed Minh"},{"id":1716,"name":"PGD Thu\u1eadn An","lat":10.891725,"lng":106.724933,"category":"Vietinbank","city":"B\u00ecnh D\u01b0\u01a1ng","state":null,"postal":null,"phone":null,"address":"S\u1ed1 7B\/2 l\u1ed9 43, B\u00ecnh H\u00f2a, Th\u1ecb x\u00e3 Thu\u1eadn An, t\u1ec9nh B\u00ecnh D\u01b0\u01a1ng"},{"id":1717,"name":"PGD \u0110\u1ed3ng An","lat":11.046425,"lng":106.679087,"category":"Vietinbank","city":"B\u00ecnh D\u01b0\u01a1ng","state":null,"postal":null,"phone":null,"address":"T\u00f2a nh\u00e0 Sora Gadens I, Khu B, L\u00f4 11, \u0111\u01b0\u1eddng H\u00f9ng V\u01b0\u01a1ng, ph\u01b0\u1eddng H\u00f2a Ph\u00fa, TP.Th\u1ee7 D\u1ea7u M\u1ed9t, t\u1ec9nh B\u00ecnh D\u01b0\u01a1ng (TP. M\u1edbi B\u00ecnh D\u01b0\u01a1ng)"},{"id":1718,"name":"CN 1 - TP. HCM","lat":10.770576,"lng":106.70149,"category":"Vietinbank","city":"Long An","state":null,"postal":null,"phone":null,"address":"S\u1ed1 93-95 H\u00e0m Nghi, ph\u01b0\u1eddng Nguy\u1ec5n Th\u00e1i B\u00ecnh, qu\u1eadn 1, TP. H\u1ed3 Ch\u00ed Minh"},{"id":1719,"name":"PGD Ly\u0301 Tha\u0301i T\u00f4\u0309","lat":10.765834,"lng":106.681207,"category":"Vietinbank","city":"Long An","state":null,"postal":null,"phone":null,"address":"S\u1ed1 20 Ly\u0301 Tha\u0301i T\u00f4\u0309, qu\u1eadn 3, TP. H\u1ed3 Ch\u00ed Minh"},{"id":1720,"name":"PGD Nguy\u00ea\u0303n Tha\u0301i Ho\u0323c","lat":10.764777,"lng":106.69702,"category":"Vietinbank","city":"Long An","state":null,"postal":null,"phone":null,"address":"S\u1ed1 37-39 Nguy\u1ec5n Th\u00e1i H\u1ecdc. qu\u1eadn 1, TP. H\u1ed3 Ch\u00ed Minh"},{"id":1721,"name":"PGD Trung S\u01a1n","lat":10.729834,"lng":106.652421,"category":"Vietinbank","city":"Long An","state":null,"postal":null,"phone":null,"address":"S\u1ed1 16-18 \u0111\u01b0\u1eddng s\u1ed1 9A, x\u00e3 B\u00ecnh H\u01b0ng, huy\u1ec7n B\u00ecnh Ch\u00e1nh, TP. H\u1ed3 Ch\u00ed Minh"},{"id":1722,"name":"PGD T\u00e2n \u0110\u1ecbnh","lat":10.790376,"lng":106.689053,"category":"Vietinbank","city":"Long An","state":null,"postal":null,"phone":null,"address":"S\u1ed1 358 Hai B\u00e0 Tr\u01b0ng, ph\u01b0\u1eddng T\u00e2n \u0110\u1ecbnh, qu\u1eadn 1, TP. H\u1ed3 Ch\u00ed Minh"},{"id":1723,"name":"PGD Tr\u1ea7n H\u01b0ng \u0110\u1ea1o","lat":10.765583,"lng":106.693575,"category":"Vietinbank","city":"Long An","state":null,"postal":null,"phone":null,"address":"S\u1ed1 209-211 Tr\u1ea7n H\u01b0ng \u0110\u1ea1o, qu\u1eadn 1, TP. H\u1ed3 Ch\u00ed Minh"},{"id":1724,"name":"PGD \u0110akao","lat":10.792763,"lng":106.697146,"category":"Vietinbank","city":"Long An","state":null,"postal":null,"phone":null,"address":"S\u1ed1 2 Bis Nguy\u1ec5n Huy T\u1ef1, ph\u01b0\u1eddng \u0110akao, qu\u1eadn 1, TP. H\u1ed3 Ch\u00ed Minh"},{"id":1725,"name":"PGD Ng\u00f4 T\u1ea5t T\u1ed1","lat":10.791935,"lng":106.712757,"category":"Vietinbank","city":"Long An","state":null,"postal":null,"phone":null,"address":"S\u1ed1 A009 Chung c\u01b0 Ng\u00f4 T\u1ea5t T\u1ed1, ph\u01b0\u1eddng 19, qu\u1eadn B\u00ecnh Th\u1ea1nh, TP. H\u1ed3 Ch\u00ed Minh"},{"id":1726,"name":"PGD Nguy\u1ec5n Tr\u00e3i","lat":10.769012,"lng":106.673941,"category":"Vietinbank","city":"Long An","state":null,"postal":null,"phone":null,"address":"S\u1ed1 586-590\/4 L\u00ea H\u1ed3ng Phong, ph\u01b0\u1eddng 10, qu\u1eadn 10, TP. H\u1ed3 Ch\u00ed Minh"},{"id":1727,"name":"CN Th\u1ee7 Thi\u00eam","lat":10.789055,"lng":106.730108,"category":"Vietinbank","city":"Long An","state":null,"postal":null,"phone":null,"address":"S\u1ed1 208 Tr\u1ea7n N\u00e3o, ph\u01b0\u1eddng B\u00ecnh An, qu\u1eadn 2, TP. H\u1ed3 Ch\u00ed Minh"},{"id":1728,"name":"PGD B\u00ecnh Tr\u01b0ng T\u00e2y","lat":10.788556,"lng":106.756197,"category":"Vietinbank","city":"H\u1ed3 Ch\u00ed Minh","state":null,"postal":null,"phone":null,"address":"S\u1ed1 44 Nguy\u1ec5n Duy Trinh, ph\u01b0\u1eddng B\u00ecnh Tr\u01b0ng T\u00e2y, qu\u1eadn 2, TP. H\u1ed3 Ch\u00ed Minh"},{"id":1729,"name":"PGD Th\u1ea3o \u0110i\u1ec1n","lat":10.803876,"lng":106.732055,"category":"Vietinbank","city":"Long An","state":null,"postal":null,"phone":null,"address":"S\u1ed1 02 Ng\u00f4 Quang Huy, ph\u01b0\u1eddng Th\u1ea3o \u0110i\u1ec1n, qu\u1eadn 2, TP. H\u1ed3 Ch\u00ed Minh"},{"id":1730,"name":"PGD Qu\u1eadn 1","lat":10.757866,"lng":106.686959,"category":"Vietinbank","city":"H\u1ed3 Ch\u00ed Minh","state":null,"postal":null,"phone":null,"address":"S\u1ed1 463A-463B Tr\u1ea7n H\u01b0ng \u0110\u1ea1o, ph\u01b0\u1eddng C\u1ea7u Kho, qu\u1eadn 1, TP. H\u1ed3 Ch\u00ed Minh"},{"id":1731,"name":"CN 2 - TP. HCM","lat":10.797836,"lng":106.682712,"category":"Vietinbank","city":"Long An","state":null,"postal":null,"phone":null,"address":"S\u1ed1 222-224 Phan \u0110\u00ecnh Ph\u00f9ng, ph\u01b0\u1eddng 1, qu\u1eadn Ph\u00fa Nhu\u1eadn, TP. H\u1ed3 Ch\u00ed Minh"},{"id":1732,"name":"PGD Ph\u00fa Nhu\u1eadn","lat":10.799081,"lng":106.680485,"category":"Vietinbank","city":"Long An","state":null,"postal":null,"phone":null,"address":"S\u1ed1 358B Phan \u0110\u00ecnh Ph\u00f9ng, ph\u01b0\u1eddng 1, qu\u1eadn Ph\u00fa Nhu\u1eadn, TP. H\u1ed3 Ch\u00ed Minh"},{"id":1733,"name":"PGD Phan X\u00edch Long","lat":10.801533,"lng":106.68297,"category":"Vietinbank","city":"Long An","state":null,"postal":null,"phone":null,"address":"S\u1ed1 153 Phan \u0110\u0103ng L\u01b0u, ph\u01b0\u1eddng 2, qu\u1eadn Ph\u00fa Nhu\u1eadn, TP. H\u1ed3 Ch\u00ed Minh"},{"id":1734,"name":"PGD Hu\u1ef3nh V\u0103n B\u00e1nh","lat":10.79179,"lng":106.674836,"category":"Vietinbank","city":"Long An","state":null,"postal":null,"phone":null,"address":"S\u1ed1 260 Hu\u1ef3nh V\u0103n B\u00e1nh, ph\u01b0\u1eddng 11, qu\u1eadn Ph\u00fa Nhu\u1eadn, TP. H\u1ed3 Ch\u00ed Minh"},{"id":1735,"name":"PGD Th\u00e1i S\u01a1n","lat":10.821153,"lng":106.684446,"category":"Vietinbank","city":"Long An","state":null,"postal":null,"phone":null,"address":"S\u1ed1 260 Nguy\u1ec5n Th\u00e1i S\u01a1n, ph\u01b0\u1eddng 04, qu\u1eadn G\u00f2 V\u1ea5p, TP. H\u1ed3 Ch\u00ed Minh"},{"id":1736,"name":"PGD Ch\u1ee3 T\u00e2n H\u01b0\u01a1ng","lat":10.785898,"lng":106.622063,"category":"Vietinbank","city":"Long An","state":null,"postal":null,"phone":null,"address":"S\u1ed1 50 V\u0103n Cao, ph\u01b0\u1eddng Ph\u00fa Th\u1ecd H\u00f2a, qu\u1eadn T\u00e2n Ph\u00fa, TP. H\u1ed3 Ch\u00ed Minh"},{"id":1737,"name":"PGD T\u00e2y Tr\u01b0\u1eddng S\u01a1n","lat":10.807988,"lng":106.662285,"category":"Vietinbank","city":"Long An","state":null,"postal":null,"phone":null,"address":"S\u1ed1 46-48, H\u1eadu Giang, ph\u01b0\u1eddng 4, qu\u1eadn Ph\u00fa Nhu\u1eadn, TP. H\u1ed3 Ch\u00ed Minh"},{"id":1738,"name":"CN 3 - TP. HCM","lat":10.77587,"lng":106.687458,"category":"Vietinbank","city":"H\u1ed3 Ch\u00ed Minh","state":null,"postal":null,"phone":null,"address":"S\u1ed1 461\u2013465 Nguy\u1ec5n \u0110\u00ecnh Chi\u1ec3u; 41, 39E, 39D Cao Th\u1eafng, ph\u01b0\u1eddng 2, qu\u1eadn 3, TP. H\u1ed3 Ch\u00ed Minh"},{"id":1739,"name":"PGD V\u01b0\u1eddn Chu\u1ed1i","lat":10.772327,"lng":106.683993,"category":"Vietinbank","city":"Long An","state":null,"postal":null,"phone":null,"address":"S\u1ed1 480 Nguy\u1ec5n \u0110\u00ecnh Chi\u1ec3u, ph\u01b0\u1eddng 4, qu\u1eadn 3, TP. H\u1ed3 Ch\u00ed Minh"},{"id":1740,"name":"PGD L\u00ea V\u0103n S\u1ef9","lat":10.796715,"lng":106.664652,"category":"Vietinbank","city":"H\u1ed3 Ch\u00ed Minh","state":null,"postal":null,"phone":null,"address":"S\u1ed1 361 L\u00ea V\u0103n S\u1ef9, ph\u01b0\u1eddng 1, qu\u1eadn T\u00e2n B\u00ecnh, TP. H\u1ed3 Ch\u00ed Minh"},{"id":1741,"name":"PGD Hai B\u00e0 Tr\u01b0ng","lat":10.788434,"lng":106.6912,"category":"Vietinbank","city":"Long An","state":null,"postal":null,"phone":null,"address":"S\u1ed1 285 Hai B\u00e0 Tr\u01b0ng, ph\u01b0\u1eddng 8, qu\u1eadn 3, TP. H\u1ed3 Ch\u00ed Minh"},{"id":1742,"name":"CN 4 - TP. HCM","lat":10.765854,"lng":106.702426,"category":"Vietinbank","city":"Long An","state":null,"postal":null,"phone":null,"address":"S\u1ed1 57-59 B\u1ebfn V\u00e2n \u0110\u1ed3n, ph\u01b0\u1eddng 12, qu\u1eadn 4, TP. H\u1ed3 Ch\u00ed Minh"},{"id":1743,"name":"PGD KCX T\u00e2n Thu\u1eadn","lat":10.749529,"lng":106.728806,"category":"Vietinbank","city":"Long An","state":null,"postal":null,"phone":null,"address":"S\u1ed1 359A Hu\u1ef3nh T\u1ea5n Ph\u00e1t, ph\u01b0\u1eddng T\u00e2n Thu\u1eadn \u0110\u00f4ng, qu\u1eadn 7, TP. H\u1ed3 Ch\u00ed Minh"},{"id":1744,"name":"PGD B\u1ebfn V\u00e2n \u0110\u1ed3n","lat":10.767314,"lng":106.704704,"category":"Vietinbank","city":"Long An","state":null,"postal":null,"phone":null,"address":"S\u1ed1 310 B\u1ebfn V\u00e2n \u0110\u1ed3n, ph\u01b0\u1eddng  02, qu\u1eadn 4, TP. H\u1ed3 Ch\u00ed Minh"},{"id":1745,"name":"PGD Nguy\u1ec5n T\u1ea5t Th\u00e0nh","lat":10.758311,"lng":106.714303,"category":"Vietinbank","city":"Long An","state":null,"postal":null,"phone":null,"address":"S\u1ed1 448B\/6 Nguy\u1ec5n T\u1ea5t Th\u00e0nh, ph\u01b0\u1eddng 18, qu\u1eadn 4, TP. H\u1ed3 Ch\u00ed Minh"},{"id":1746,"name":"PGD L\u00ea Anh Xu\u00e2n","lat":10.7999,"lng":106.718481,"category":"Vietinbank","city":"Long An","state":null,"postal":null,"phone":null,"address":"Gian h\u00e0ng L2- 11B, t\u1ea7ng 2, Khu TTTM t\u00f2a nh\u00e0 PEARL PLAZA, s\u1ed1 561A  \u0111\u01b0\u1eddng \u0110i\u1ec7n Bi\u00ean Ph\u1ee7, ph\u01b0\u1eddng 25, qu\u1eadn B\u00ecnh Th\u1ea1nh, TP. H\u1ed3 Ch\u00ed Minh"},{"id":1747,"name":"PGD V\u0103n Th\u00e1nh","lat":10.802292,"lng":106.715569,"category":"Vietinbank","city":"Long An","state":null,"postal":null,"phone":null,"address":"S\u1ed1 25, 25A \u0111\u01b0\u1eddng D2, ph\u01b0\u1eddng 25, qu\u1eadn B\u00ecnh Th\u1ea1nh, TP. H\u1ed3 Ch\u00ed Minh"},{"id":1748,"name":"PGD T\u00e2n Quy","lat":10.739806,"lng":106.703913,"category":"Vietinbank","city":"Long An","state":null,"postal":null,"phone":null,"address":"S\u1ed1 549 Nguy\u1ec5n Th\u1ecb Th\u1eadp, ph\u01b0\u1eddng T\u00e2n Phong, qu\u1eadn 7, TP. H\u1ed3 Ch\u00ed Minh:"},{"id":1749,"name":"CN Nam S\u00e0i G\u00f2n","lat":10.738909,"lng":106.700291,"category":"Vietinbank","city":"Long An","state":null,"postal":null,"phone":null,"address":"S\u1ed1 23 Nguy\u1ec5n H\u1eefu Th\u1ecd, Ph\u01b0\u1eddng T\u00e2n h\u01b0ng, Qu\u1eadn 7, TP. H\u1ed3 Ch\u00ed Minh"},{"id":1750,"name":"PGD Ph\u00fa M\u1ef9 H\u01b0ng","lat":10.729235,"lng":106.70795,"category":"Vietinbank","city":"Long An","state":null,"postal":null,"phone":null,"address":"S\u1ed1 974 Nguy\u1ec5n V\u0103n Linh, ph\u01b0\u1eddng T\u00e2n Phong, qu\u1eadn 7, TP. H\u1ed3 Ch\u00ed Minh"},{"id":1751,"name":"PGD Tr\u1ea7n Xu\u00e2n So\u1ea1n","lat":10.75062,"lng":106.702945,"category":"Vietinbank","city":"Long An","state":null,"postal":null,"phone":null,"address":"S\u1ed1 725 Tr\u1ea7n Xu\u00e2n So\u1ea1n, ph\u01b0\u1eddng T\u00e2n H\u01b0ng, qu\u1eadn 7, TP. H\u1ed3 Ch\u00ed Minh"},{"id":1752,"name":"PGD Hu\u1ef3nh T\u1ea5n Ph\u00e1t","lat":10.714486,"lng":106.736893,"category":"Vietinbank","city":"Long An","state":null,"postal":null,"phone":null,"address":"S\u1ed1 1330 H\u00f9ynh T\u1ea5n Ph\u00e1t, ph\u01b0\u1eddng Ph\u00fa M\u1ef9, qu\u1eadn 7, TP. H\u1ed3 Ch\u00ed Minh"},{"id":1753,"name":"PGD Nguy\u1ec5n V\u0103n C\u1eeb","lat":10.76756,"lng":106.69765,"category":"Vietinbank","city":"Long An","state":null,"postal":null,"phone":null,"address":"S\u1ed1 170-172 Nguy\u1ec5n Th\u00e1i B\u00ecnh, ph\u01b0\u1eddng Nguy\u1ec5n Th\u00e1i B\u00ecnh, qu\u1eadn 1, TP. H\u1ed3 Ch\u00ed Minh"},{"id":1754,"name":"CN S\u00e0i G\u00f2n","lat":10.731455,"lng":106.693899,"category":"Vietinbank","city":"H\u1ed3 Ch\u00ed Minh","state":null,"postal":null,"phone":null,"address":"S\u1ed1 1425-1427 M\u1ef9 To\u00e0n 2 (H4), Nguy\u1ec5n V\u0103n Linh, ph\u01b0\u1eddng T\u00e2n Phong, qu\u1eadn 7, TP. H\u1ed3 Ch\u00ed Minh"},{"id":1755,"name":"PGD Nguy\u1ec5n \u0110\u00ecnh Chi\u1ec3u","lat":10.7758,"lng":106.687,"category":"Vietinbank","city":"Long An","state":null,"postal":null,"phone":null,"address":"S\u1ed1 278A Nguy\u1ec5n \u0110\u00ecnh Chi\u1ec3u, ph\u01b0\u1eddng 6, qu\u1eadn 3, TP. H\u1ed3 Ch\u00ed Minh"},{"id":1756,"name":"CN 5  - TP. HCM","lat":10.756749,"lng":106.67385,"category":"Vietinbank","city":"Long An","state":null,"postal":null,"phone":null,"address":"S\u1ed1 279-281-283-287 Tr\u1ea7n Ph\u00fa, ph\u01b0\u1eddng 8, qu\u1eadn 5, TP. H\u1ed3 Ch\u00ed Minh"},{"id":1757,"name":"PGD H\u00f2a B\u00ecnh","lat":10.752608,"lng":106.675221,"category":"Vietinbank","city":"H\u1ed3 Ch\u00ed Minh","state":null,"postal":null,"phone":null,"address":"S\u1ed1 34-36 B\u00f9i H\u1eefu Ngh\u0129a, ph\u01b0\u1eddng 5, qu\u1eadn 5, TP. H\u1ed3 Ch\u00ed Minh"},{"id":1758,"name":"PGD Phan Ph\u00fa Ti\u00ean","lat":10.752811,"lng":106.665353,"category":"Vietinbank","city":"Long An","state":null,"postal":null,"phone":null,"address":"S\u1ed1 222-224 Tr\u1ea7n H\u01b0ng \u0110\u1ea1o, ph\u01b0\u1eddng 11, qu\u1eadn 5, TP. H\u1ed3 Ch\u00ed Minh"},{"id":1759,"name":"PGD \u0110\u1ed3ng Kh\u00e1nh","lat":10.75075,"lng":106.66001,"category":"Vietinbank","city":"Long An","state":null,"postal":null,"phone":null,"address":"S\u1ed1 156-158 H\u1ea3i Th\u01b0\u1ee3ng L\u00e3n \u00d4ng, ph\u01b0\u1eddng 10, qu\u1eadn 5, TP. H\u1ed3 Ch\u00ed Minh"},{"id":1760,"name":"PGD So\u00e1i K\u00ecnh L\u00e2m","lat":10.752619,"lng":106.65856,"category":"Vietinbank","city":"Long An","state":null,"postal":null,"phone":null,"address":"S\u1ed1 75-77 Ch\u00e2u V\u0103n Li\u00eam, ph\u01b0\u1eddng 14, qu\u1eadn 5, TP. H\u1ed3 Ch\u00ed Minh"},{"id":1761,"name":"PGD B\u00e0u Sen","lat":10.759792,"lng":106.680062,"category":"Vietinbank","city":"Long An","state":null,"postal":null,"phone":null,"address":"S\u1ed1 299 An D\u01b0\u01a1ng V\u01b0\u01a1ng, ph\u01b0\u1eddng 3, qu\u1eadn 5, TP. H\u1ed3 Ch\u00ed Minh"},{"id":1762,"name":"PGD Thu\u1eadn Ki\u1ec1u","lat":10.756865,"lng":106.654419,"category":"Vietinbank","city":"Long An","state":null,"postal":null,"phone":null,"address":"S\u1ed1 163 D\u01b0\u01a1ng T\u1eed Giang, ph\u01b0\u1eddng 15, qu\u1eadn 5, TP. H\u1ed3 Ch\u00ed Minh"},{"id":1763,"name":"PGD Nancy","lat":10.755937,"lng":106.683082,"category":"Vietinbank","city":"Long An","state":null,"postal":null,"phone":null,"address":"S\u1ed1 448 Tr\u1ea7n H\u01b0ng \u0110\u1ea1o, ph\u01b0\u1eddng 2, qu\u1eadn 5, TP. H\u1ed3 Ch\u00ed Minh"},{"id":1764,"name":"PGD B\u00ecnh T\u00e2y","lat":10.748603,"lng":106.636651,"category":"Vietinbank","city":"H\u1ed3 Ch\u00ed Minh","state":null,"postal":null,"phone":null,"address":"S\u1ed1 528-530 H\u1eadu Giang, ph\u01b0\u1eddng 12, qu\u1eadn 6, TP. H\u1ed3 Ch\u00ed Minh"},{"id":1765,"name":"CN 6 - TP. HCM","lat":10.753274,"lng":106.664823,"category":"Vietinbank","city":"H\u1ed3 Ch\u00ed Minh","state":null,"postal":null,"phone":null,"address":"S\u1ed1 635B Nguy\u1ec5n Tr\u00e3i, Qu\u1eadn 5, TP. H\u1ed3 Ch\u00ed Minh"},{"id":1766,"name":"PGD An L\u1ea1c","lat":10.728912,"lng":106.608489,"category":"Vietinbank","city":"Long An","state":null,"postal":null,"phone":null,"address":"S\u1ed1 697-699 Kinh D\u01b0\u01a1ng V\u01b0\u01a1ng, ph\u01b0\u1eddng An L\u1ea1c, qu\u1eadn B\u00ecnh T\u00e2n, TP. H\u1ed3 Ch\u00ed Minh"},{"id":1767,"name":"PGD Ch\u1ee3 L\u1edbn","lat":10.750597,"lng":106.654113,"category":"Vietinbank","city":"Long An","state":null,"postal":null,"phone":null,"address":"S\u1ed1 26-28 Th\u00e1p M\u01b0\u1eddi, ph\u01b0\u1eddng 2, qu\u1eadn 6, TP. H\u1ed3 Ch\u00ed Minh"},{"id":1768,"name":"PGD Nguy\u1ec5n Tri Ph\u01b0\u01a1ng","lat":10.766996,"lng":106.667585,"category":"Vietinbank","city":"Long An","state":null,"postal":null,"phone":null,"address":"S\u1ed1 482 Nguy\u1ec5n Tri Ph\u01b0\u01a1ng, ph\u01b0\u1eddng 9, qu\u1eadn 10, TP. H\u1ed3 Ch\u00ed Minh"},{"id":1769,"name":"PGD B\u00ecnh Th\u1edbi","lat":10.762584,"lng":106.656415,"category":"Vietinbank","city":"Long An","state":null,"postal":null,"phone":null,"address":"S\u1ed1 265-267 t\u1ea7ng 1, t\u1ea7ng 2 L\u00ea \u0110\u1ea1i H\u00e0nh, ph\u01b0\u1eddng 13, 1u\u1eadn 11, TP. H\u1ed3 Ch\u00ed Minh"},{"id":1770,"name":"PGD H\u1eadu Giang","lat":10.747071,"lng":106.63012,"category":"Vietinbank","city":"Long An","state":null,"postal":null,"phone":null,"address":"S\u1ed1 832-834 H\u1eadu Giang, ph\u01b0\u1eddng 12, qu\u1eadn 6, TP. H\u1ed3 Ch\u00ed Minh"},{"id":1771,"name":"PGD Tr\u01b0\u1eddng Chinh","lat":10.814566,"lng":106.6323,"category":"Vietinbank","city":"Long An","state":null,"postal":null,"phone":null,"address":"S\u1ed1 690 Tr\u01b0\u1eddng Chinh, ph\u01b0\u1eddng 15, qu\u1eadn T\u00e2n B\u00ecnh, TP. H\u1ed3 Ch\u00ed Minh"},{"id":1772,"name":"PGD B\u00ecnh Tr\u1ecb \u0110\u00f4ng","lat":10.751528,"lng":106.617025,"category":"Vietinbank","city":"Long An","state":null,"postal":null,"phone":null,"address":"S\u1ed1 145 \u0111\u01b0\u1eddng s\u1ed1 7, ph\u01b0\u1eddng B\u00ecnh Tr\u1ecb \u0110\u00f4ng, qu\u1eadn B\u00ecnh T\u00e2n, TP. H\u1ed3 Ch\u00ed Minh"},{"id":1773,"name":"PGD L\u1ea1c Long Qu\u00e2n","lat":10.780138,"lng":106.649856,"category":"Vietinbank","city":"Long An","state":null,"postal":null,"phone":null,"address":"S\u1ed1 657-659 L\u1ea1c Long Qu\u00e2n, ph\u01b0\u1eddng 10, qu\u1eadn T\u00e2n B\u00ecnh, TP. H\u1ed3 Ch\u00ed Minh"},{"id":1774,"name":"CN 7 - TP. HCM","lat":10.801665,"lng":106.698984,"category":"Vietinbank","city":"H\u1ed3 Ch\u00ed Minh","state":null,"postal":null,"phone":null,"address":"S\u1ed1 346 B\u00f9i H\u1eefu Ngh\u0129a, ph\u01b0\u1eddng 2, qu\u1eadn B\u00ecnh Th\u1ea1nh, TP. H\u1ed3 Ch\u00ed Minh"},{"id":1775,"name":"PGD Th\u1ea1nh M\u1ef9 T\u00e2y","lat":10.792967,"lng":106.707888,"category":"Vietinbank","city":"Long An","state":null,"postal":null,"phone":null,"address":"S\u1ed1 22 X\u00f4 Vi\u1ebft Ngh\u1ec7 T\u0129nh, ph\u01b0\u1eddng 19, qu\u1eadn B\u00ecnh Th\u1ea1nh, TP. H\u1ed3 Ch\u00ed Minh"},{"id":1776,"name":"PGD B\u00ecnh H\u00f2a","lat":10.813936,"lng":106.697804,"category":"Vietinbank","city":"H\u1ed3 Ch\u00ed Minh","state":null,"postal":null,"phone":null,"address":"S\u1ed1 254 N\u01a1 Trang Long, ph\u01b0\u1eddng 12, qu\u1eadn B\u00ecnh Th\u1ea1nh, TP. H\u1ed3 Ch\u00ed Minh"},{"id":1777,"name":"PGD C\u1ea7u S\u01a1n","lat":10.811926,"lng":106.710774,"category":"Vietinbank","city":"Long An","state":null,"postal":null,"phone":null,"address":"S\u1ed1 100 Nguy\u1ec5n X\u00ed, ph\u01b0\u1eddng 26, qu\u1eadn B\u00ecnh Th\u1ea1nh, TP. H\u1ed3 Ch\u00ed Minh"},{"id":1778,"name":"PGD L\u01b0\u01a1ng \u0110i\u0323nh Cu\u0309a","lat":10.783651,"lng":106.726858,"category":"Vietinbank","city":"Long An","state":null,"postal":null,"phone":null,"address":"S\u1ed1 137-139 L\u01b0\u01a1ng \u0110i\u0323nh Cu\u0309a, ph\u01b0\u1eddng Bi\u0300nh An, qu\u1eadn 2, TP. H\u1ed3 Ch\u00ed Minh"},{"id":1779,"name":"PGD T\u00f4n \u0110\u1ee9c Th\u1eafng","lat":10.786686,"lng":106.705038,"category":"Vietinbank","city":"Long An","state":null,"postal":null,"phone":null,"address":"T\u1ea7ng tr\u1ec7t t\u00f2a nh\u00e0 Petro VietNam Tower s\u1ed1 1-5 L\u00ea Du\u1ea9n, ph\u01b0\u1eddng B\u1ebfn Ngh\u00e9, qu\u1eadn 1, TP. H\u1ed3 Ch\u00ed Minh"},{"id":1780,"name":"CN 8 - TP. HCM","lat":10.742471,"lng":106.6653,"category":"Vietinbank","city":"H\u1ed3 Ch\u00ed Minh","state":null,"postal":null,"phone":null,"address":"S\u1ed1 1073 Ph\u1ea1m Th\u1ebf Hi\u1ec3n, ph\u01b0\u1eddng 5, qu\u1eadn 8, TP. H\u1ed3 Ch\u00ed Minh"},{"id":1781,"name":"PGD X\u00f3m C\u1ee7i","lat":10.745196,"lng":106.657418,"category":"Vietinbank","city":"Long An","state":null,"postal":null,"phone":null,"address":"S\u1ed1 364-366 T\u00f9ng Thi\u1ec7n V\u01b0\u01a1ng, ph\u01b0\u1eddng 13, qu\u1eadn 8, TP. H\u1ed3 Ch\u00ed Minh"},{"id":1782,"name":"PGD R\u1ea1ch \u00d4ng","lat":10.747459,"lng":106.68548,"category":"Vietinbank","city":"Long An","state":null,"postal":null,"phone":null,"address":"S\u1ed1 54-56-58 \u0111\u01b0\u1eddng Nguy\u1ec5n Th\u1ecb T\u1ea7n, ph\u01b0\u1eddng 3, qu\u1eadn 8, TP. H\u1ed3 Ch\u00ed Minh"},{"id":1783,"name":"PGD B\u00ecnh \u0110\u0103ng","lat":10.734841,"lng":106.655907,"category":"Vietinbank","city":"Long An","state":null,"postal":null,"phone":null,"address":"S\u1ed1 252-254 \u0111\u01b0\u1eddng Li\u00ean 5, ph\u01b0\u1eddng 6, qu\u1eadn 8, TP. H\u1ed3 Ch\u00ed Minh"},{"id":1784,"name":"PGD Ph\u1ea1m H\u00f9ng","lat":10.738352,"lng":106.670192,"category":"Vietinbank","city":"Long An","state":null,"postal":null,"phone":null,"address":"S\u1ed1 229 Ph\u1ea1m H\u00f9ng, ph\u01b0\u1eddng 4, qu\u1eadn 8, TP. H\u1ed3 Ch\u00ed Minh"},{"id":1785,"name":"PGD LaKai","lat":10.761407,"lng":106.668342,"category":"Vietinbank","city":"Long An","state":null,"postal":null,"phone":null,"address":"S\u1ed1 297 Nguy\u1ec5n tri Ph\u01b0\u01a1ng, ph\u01b0\u1eddng 5, qu\u1eadn 10, TP. H\u1ed3 Ch\u00ed Minh"},{"id":1786,"name":"PGD Minh Ph\u1ee5ng","lat":10.760605,"lng":106.644529,"category":"Vietinbank","city":"Long An","state":null,"postal":null,"phone":null,"address":"S\u1ed1 426-428 \u0111\u01b0\u1eddng Minh Ph\u1ee5ng, ph\u01b0\u1eddng 9, qu\u1eadn 11, TP. H\u1ed3 Ch\u00ed Minh"},{"id":1787,"name":"CN 10 - TP. HCM","lat":10.765292,"lng":106.673002,"category":"Vietinbank","city":"Long An","state":null,"postal":null,"phone":null,"address":"S\u1ed1 111-121 Ng\u00f4 Gia T\u1ef1, ph\u01b0\u1eddng 2, qu\u1eadn 10, TP. H\u1ed3 Ch\u00ed Minh"},{"id":1788,"name":"PGD L\u00fd Th\u01b0\u1eddng Ki\u1ec7t","lat":10.773269,"lng":106.659463,"category":"Vietinbank","city":"Long An","state":null,"postal":null,"phone":null,"address":"S\u1ed1 268 L\u00fd Th\u01b0\u1eddng Ki\u1ec7t, ph\u01b0\u1eddng 14, qu\u1eadn 10, TP. H\u1ed3 Ch\u00ed Minh"},{"id":1789,"name":"PGD Ng\u00f4 Gia T\u1ef1","lat":10.767,"lng":106.674694,"category":"Vietinbank","city":"Long An","state":null,"postal":null,"phone":null,"address":"S\u1ed1 530 - 532 L\u00ea H\u1ed3ng Phong, ph\u01b0\u1eddng 1, qu\u1eadn 10, TP. H\u1ed3 Ch\u00ed Minh"},{"id":1790,"name":"PGD Ng\u00f4 Quy\u1ec1n","lat":10.764916,"lng":106.664283,"category":"Vietinbank","city":"Long An","state":null,"postal":null,"phone":null,"address":"S\u1ed1 272 Ng\u00f4 Quy\u1ec1n, ph\u01b0\u1eddng 8, qu\u1eadn 10, TP. H\u1ed3 Ch\u00ed Minh"},{"id":1791,"name":"PGD T\u00f4 Hi\u1ebfn Th\u00e0nh","lat":10.779882,"lng":106.66836,"category":"Vietinbank","city":"Long An","state":null,"postal":null,"phone":null,"address":"S\u1ed1 159 T\u00f4 Hi\u1ebfn Th\u00e0nh, ph\u01b0\u1eddng 13, qu\u1eadn 10, TP. H\u1ed3 Ch\u00ed Minh"},{"id":1792,"name":"CN 11 - TP. HCM","lat":10.755245,"lng":106.648289,"category":"Vietinbank","city":"Long An","state":null,"postal":null,"phone":null,"address":"S\u1ed1 1447-1449 \u0111\u01b0\u1eddng 3\/2, ph\u01b0\u1eddng 16, qu\u1eadn 11, TP. H\u1ed3 Ch\u00ed Minh"},{"id":1793,"name":"PGD Nguy\u1ec5n S\u01a1n","lat":10.78302,"lng":106.626691,"category":"Vietinbank","city":"Long An","state":null,"postal":null,"phone":null,"address":"S\u1ed1 236 Nguy\u1ec5n S\u01a1n, ph\u01b0\u1eddng Ph\u00fa Th\u1ecd H\u00f2a, qu\u1eadn T\u00e2n Ph\u00fa, TP. H\u1ed3 Ch\u00ed Minh"},{"id":1794,"name":"PGD L\u00e3nh Binh Th\u0103ng","lat":10.764801,"lng":106.647065,"category":"Vietinbank","city":"Long An","state":null,"postal":null,"phone":null,"address":"S\u1ed1 333 Bis L\u00e3nh Binh Th\u0103ng, ph\u01b0\u1eddng 9, qu\u1eadn 11, TP. H\u1ed3 Ch\u00ed Minh"},{"id":1795,"name":"PGD Ph\u00fa Th\u1ecd","lat":10.757695,"lng":106.657041,"category":"Vietinbank","city":"Long An","state":null,"postal":null,"phone":null,"address":"S\u1ed1 680 Nguy\u1ec5n Ch\u00ed Thanh, ph\u01b0\u1eddng 4, qu\u1eadn 11, TP. H\u1ed3 Ch\u00ed Minh"},{"id":1796,"name":"PGD C\u00e2y G\u00f5","lat":10.754513,"lng":106.643469,"category":"Vietinbank","city":"Long An","state":null,"postal":null,"phone":null,"address":"S\u1ed1 246 Minh Ph\u1ee5ng, ph\u01b0\u1eddng 16, qu\u1eadn 11, TP. H\u1ed3 Ch\u00ed Minh"},{"id":1797,"name":"CN 12 - TP. HCM","lat":10.799685,"lng":106.640978,"category":"Vietinbank","city":"Long An","state":null,"postal":null,"phone":null,"address":"S\u1ed1 366 Tr\u01b0\u1eddng Chinh, ph\u01b0\u1eddng 13, qu\u1eadn T\u00e2n B\u00ecnh, TP. H\u1ed3 Ch\u00ed Minh"},{"id":1798,"name":"CN T\u00e2n B\u00ecnh","lat":10.800881,"lng":106.653227,"category":"Vietinbank","city":"H\u1ed3 Ch\u00ed Minh","state":null,"postal":null,"phone":null,"address":"S\u1ed1 20 C\u1ed9ng Ho\u00e0, ph\u01b0\u1eddng 12, qu\u1eadn T\u00e2n B\u00ecnh, TP. H\u1ed3 Ch\u00ed Minh"},{"id":1799,"name":"PGD Ch\u1ee3 T\u00e2n B\u00ecnh","lat":10.786976,"lng":106.653496,"category":"Vietinbank","city":"Long An","state":null,"postal":null,"phone":null,"address":"S\u1ed1 39 L\u00fd Th\u01b0\u1eddng Ki\u1ec7t, qu\u1eadn T\u00e2n B\u00ecnh, TP. H\u1ed3 Ch\u00ed Minh"},{"id":1800,"name":"PGD \u00d4ng T\u1ea1","lat":10.792788,"lng":106.659518,"category":"Vietinbank","city":"H\u1ed3 Ch\u00ed Minh","state":null,"postal":null,"phone":null,"address":"S\u1ed1 838 C\u00e1ch m\u1ea1ng th\u00e1ng 8, ph\u01b0\u1eddng 6, qu\u1eadn T\u00e2n B\u00ecnh, TP. H\u1ed3 Ch\u00ed Minh"},{"id":1801,"name":"PGD B\u00e0u C\u00e1t","lat":10.792871,"lng":106.641259,"category":"Vietinbank","city":"Long An","state":null,"postal":null,"phone":null,"address":"S\u1ed1 52-54 B\u00e0u C\u00e1t, ph\u01b0\u1eddng14, qu\u1eadn T\u00e2n B\u00ecnh, TP. H\u1ed3 Ch\u00ed Minh"},{"id":1802,"name":"CN \u0110\u00f4ng S\u00e0i G\u00f2n","lat":10.846589,"lng":106.771297,"category":"Vietinbank","city":"Long An","state":null,"postal":null,"phone":null,"address":"S\u1ed1 35 Nguy\u1ec5n V\u0103n B\u00e1, ph\u01b0\u1eddng B\u00ecnh Th\u1ecd, qu\u1eadn Th\u1ee7 \u0110\u1ee9c, TP. H\u1ed3 Ch\u00ed Minh"},{"id":1803,"name":"PGD T\u00f4 Ng\u1ecdc V\u00e2n","lat":10.858405,"lng":106.748863,"category":"Vietinbank","city":"Long An","state":null,"postal":null,"phone":null,"address":"S\u1ed1 372 T\u00f4 Ng\u1ecdc V\u00e2n, Khu ph\u1ed1 04, ph\u01b0\u1eddng Tam Ph\u00fa, qu\u1eadn Th\u1ee7 \u0110\u1ee9c, TP. H\u1ed3 Ch\u00ed Minh"},{"id":1804,"name":"PGD Nguy\u1ec5n Duy Trinh","lat":10.789252,"lng":106.778934,"category":"Vietinbank","city":"Long An","state":null,"postal":null,"phone":null,"address":"S\u1ed1 615 Nguy\u1ec5n Duy Trinh, ph\u01b0\u1eddng B\u00ecnh Tr\u01b0ng \u0110\u00f4ng, qu\u1eadn 2, TP. H\u1ed3 Ch\u00ed Minh"},{"id":1805,"name":"PGD L\u00ea V\u0103n Vi\u1ec7t","lat":10.844377,"lng":106.785182,"category":"Vietinbank","city":"Long An","state":null,"postal":null,"phone":null,"address":"S\u1ed1 333 L\u00ea V\u0103n Vi\u1ec7t, ph\u01b0\u1eddng T\u0103ng Nh\u01a1n Ph\u00fa A, qu\u1eadn 9, TP. H\u1ed3 Ch\u00ed Minh"},{"id":1806,"name":"PGD \u0110\u1ed7 Xu\u00e2n H\u1ee3p","lat":10.824129,"lng":106.772538,"category":"Vietinbank","city":"Long An","state":null,"postal":null,"phone":null,"address":"S\u1ed1 200 \u0110\u1ed7 Xu\u00e2n H\u1ee3p, ph\u01b0\u1eddng Ph\u01b0\u1edbc Long A, qu\u1eadn 9, TP. H\u1ed3 Ch\u00ed Minh"},{"id":1807,"name":"PGD Hi\u1ec7p Ph\u00fa","lat":10.844342,"lng":106.785022,"category":"Vietinbank","city":"Long An","state":null,"postal":null,"phone":null,"address":"S\u1ed1 191 L\u00ea V\u0103n Vi\u1ec7t, ph\u01b0\u1eddng Hi\u1ec7p Ph\u00fa, qu\u1eadn 9, TP. H\u1ed3 Ch\u00ed Minh"},{"id":1808,"name":"PGD METRO","lat":10.800776,"lng":106.741212,"category":"Vietinbank","city":"Long An","state":null,"postal":null,"phone":null,"address":"S\u1ed1 76 \u0111\u01b0\u1eddng Song H\u00e0nh, ph\u01b0\u1eddng An Ph\u00fa, qu\u1eadn 2, TP. H\u1ed3 Ch\u00ed Minh"},{"id":1809,"name":"CN B\u1eafc S\u00e0i G\u00f2n","lat":10.970202,"lng":106.48955,"category":"Vietinbank","city":"Long An","state":null,"postal":null,"phone":null,"address":"S\u1ed1 35-37 t\u1ec9nh l\u1ed9 8, th\u1ecb tr\u1ea5n C\u1ee7 Chi, huy\u1ec7n C\u1ee7 Chi, TP. H\u1ed3 Ch\u00ed Minh"},{"id":1810,"name":"PGD Ph\u00fa H\u01b0ng","lat":10.799622,"lng":106.6717,"category":"Vietinbank","city":"Long An","state":null,"postal":null,"phone":null,"address":"S\u1ed1 209 Ho\u00e0ng V\u0103n Th\u1ee5, ph\u01b0\u1eddng 8, qu\u1eadn Ph\u00fa Nhu\u1eadn, TP. H\u1ed3 Ch\u00ed Minh"},{"id":1811,"name":"CN Gia \u0110\u1ecbnh","lat":10.795584,"lng":106.675253,"category":"Vietinbank","city":"Long An","state":null,"postal":null,"phone":null,"address":"T\u00f2a nh\u00e0 s\u1ed1 92 Nguy\u1ec5n V\u0103n Tr\u1ed7i, qu\u1eadn Ph\u00fa Nhu\u1eadn, TP. H\u1ed3 Ch\u00ed Minh"},{"id":1812,"name":"CN Ch\u1ee3 L\u1edbn","lat":10.769299,"lng":106.632137,"category":"Vietinbank","city":"Long An","state":null,"postal":null,"phone":null,"address":"T\u00f2a nh\u00e0 132-138 L\u0169y B\u00e1n B\u00edch, ph\u01b0\u1eddng T\u00e2n Th\u1edbi H\u00f2a, qu\u1eadn T\u00e2n Ph\u00fa, TP. H\u1ed3 Ch\u00ed Minh"},{"id":1644,"name":"CN V\u00e0m C\u1ecf","lat":10.533865,"lng":106.410372,"category":"Sacombank","city":"Long An","state":null,"postal":null,"phone":"(0272) 352 4474","address":"84 \u0111\u01b0\u1eddng H\u00f9ng V\u01b0\u01a1ng, Ph\u01b0\u1eddng 02, Th\u00e0nh ph\u1ed1 T\u00e2n An, t\u1ec9nh Long An"},{"id":1645,"name":"CN Long An","lat":10.536591,"lng":106.406149,"category":"Sacombank","city":"Long An","state":null,"postal":null,"phone":"02723.831.590","address":"165-167-169 H\u00f9ng V\u01b0\u01a1ng, Tp. T\u00e2n An, Long An"},{"id":1646,"name":"PGD G\u00f2 \u0110en","lat":10.641259,"lng":106.517163,"category":"Sacombank","city":"Long An","state":null,"postal":null,"phone":"0272 3637 551-552","address":"31 Qu\u1ed1c l\u1ed9 1A, \u1ea5p Long B\u00ecnh, x\u00e3 Long Hi\u1ec7p, huy\u1ec7n B\u1ebfn L\u1ee9c, t\u1ec9nh Long An"},{"id":1648,"name":"PGD Th\u1ee7 Th\u1eeba","lat":10.601429,"lng":106.402578,"category":"Sacombank","city":"Long An","state":null,"postal":null,"phone":"02723 613 660","address":"2\/30B Phan V\u0103n T\u00ecnh, Th\u1ecb Tr\u1ea5n Th\u1ee7 Th\u1eeba, Th\u1ee7 Th\u1eeba, Long An"},{"id":1650,"name":"PGD C\u1ea7n \u0110\u01b0\u1edbc","lat":10.504695,"lng":106.604754,"category":"Sacombank","city":"Long An","state":null,"postal":null,"phone":"02723.713 222","address":"22A, QL50, KP3, TT C\u1ea6N \u0110\u01af\u1edaC, H.C\u1ea6N \u0110\u01af\u1edaC, Long An"},{"id":1652,"name":"PGD B\u1ebfn L\u1ee9c","lat":10.642878,"lng":106.483102,"category":"Sacombank","city":"Long An","state":null,"postal":null,"phone":"02723 633 441","address":"S\u1ed1 18A \u0111\u01b0\u1eddng Nguy\u1ec5n H\u1eefu Th\u1ecd, Khu Ph\u1ed1 3, Th\u1ecb tr\u1ea5n B\u1ebfn L\u1ee9c, huy\u1ec7n B\u1ebfn L\u1ee9c, t\u1ec9nh Long An"},{"id":1654,"name":"CN B\u00e0 R\u1ecba V\u0169ng T\u00e0u","lat":10.35683,"lng":107.082642,"category":"Sacombank","city":"Long An","state":null,"postal":null,"phone":null,"address":"67A L\u00ea H\u1ed3ng Phong, P7, TP. V\u0169ng T\u00e0u"},{"id":1655,"name":"PGD Th\u1eafng Tam","lat":10.346049,"lng":107.084291,"category":"Sacombank","city":"B\u00e0 R\u1ecba - V\u0169ng T\u00e0u","state":null,"postal":null,"phone":"0254.3543.791 - 0254.3543.793","address":"86 Nam K\u1ef3 Kh\u1edfi Ngh\u0129a, Ph\u01b0\u1eddng Th\u1eafng Tam, TP. V\u0169ng T\u00e0u, t\u1ec9nh B\u00e0 R\u1ecba V\u0169ng T\u00e0u"},{"id":1656,"name":"PGD Nguy\u1ec5n An Ninh","lat":10.366162,"lng":107.088171,"category":"Sacombank","city":"B\u00e0 R\u1ecba - V\u0169ng T\u00e0u","state":null,"postal":null,"phone":"2543.543275","address":"300A-302 Nguy\u1ec5n An Ninh, Ph\u01b0\u1eddng 7, TP V\u0169ng T\u00e0u, T\u1ec9nh BR-VT"},{"id":1657,"name":"PGD Long H\u1ea3i","lat":10.413877,"lng":107.200996,"category":"Sacombank","city":"B\u00e0 R\u1ecba - V\u0169ng T\u00e0u","state":null,"postal":null,"phone":"0254.3671.555","address":"s\u1ed1 72 H\u01b0\u01a1ng L\u1ed9 5, X\u00e3 Ph\u01b0\u1edbc H\u01b0ng, Huy\u1ec7n Long \u0110i\u1ec1n, T\u1ec9nh B\u00e0 R\u1ecba V\u0169ng T\u00e0u"},{"id":1658,"name":"PGD Ph\u01b0\u1edbc Trung","lat":10.49331,"lng":107.170782,"category":"Sacombank","city":"Long An","state":null,"postal":null,"phone":null,"address":"68 B\u1ea1ch \u0110\u1eb1ng, P.Ph\u01b0\u1edbc Trung, TP B\u00e0 R\u1ecba, t\u1ec9nh B\u00e0 R\u1ecba - V\u0169ng T\u00e0u"},{"id":1659,"name":"CN \u0110i\u1ec7n Bi\u00ean Ph\u1ee7","lat":10.770577,"lng":106.67677,"category":"Sacombank","city":"Long An","state":null,"postal":null,"phone":null,"address":"549 \u0110i\u1ec7n Bi\u00ean Ph\u1ee7 Ph\u01b0\u1eddng 3 , Qu\u1eadn 3 TPHCM"},{"id":1660,"name":"PGD Thanh \u0110a","lat":10.810327,"lng":106.71307,"category":"Sacombank","city":"Long An","state":null,"postal":null,"phone":null,"address":"552A-552B X\u00f4 Vi\u1ebft Ngh\u1ec7 T\u0129nh, P.25, Qu\u1eadn B\u00ecnh Th\u1ea1nh"},{"id":1662,"name":"PGD \u0110\u00f4ng Th\u1ea1nh","lat":10.906348,"lng":106.640001,"category":"Sacombank","city":"Long An","state":null,"postal":null,"phone":null,"address":"55T \u0110\u1eb7ng Th\u00fac V\u1ecbnh, x\u00e3 \u0110\u00f4ng Th\u1ea1nh, huy\u1ec7n H\u00f3c M\u00f4n, TP.HCM"},{"id":1664,"name":"PGD TN L\u0169y B\u00e1n B\u00edch","lat":10.786372,"lng":106.636905,"category":"Sacombank","city":"Long An","state":null,"postal":null,"phone":null,"address":"580 L\u0168Y B\u00c1N B\u00cdCH P H\u00d2A TH\u1ea0NH QU\u1eacN T\u00c2N PH\u00da"},{"id":1665,"name":"CN B\u00ecnh T\u00e2y","lat":10.749469,"lng":106.647429,"category":"Sacombank","city":"Long An","state":null,"postal":null,"phone":null,"address":"59-61-63-65 H\u1eadu Giang, P2, Q6, TPHCM"},{"id":1667,"name":"PGD Ho\u00e0ng Mai","lat":10.848555,"lng":106.667034,"category":"Sacombank","city":"Long An","state":null,"postal":null,"phone":null,"address":"602 - 604 L\u00ea \u0110\u1ee9c Th\u1ecd, ph\u01b0\u1eddng 15, qu\u1eadn G\u00f2 V\u1ea5p, TP.HCM"},{"id":1669,"name":"PGD TN KCN T\u00e2n B\u00ecnh","lat":10.810253,"lng":106.620034,"category":"Sacombank","city":"Long An","state":null,"postal":null,"phone":null,"address":"62- 64 T\u00e2y Th\u1ea1nh, P. T\u00e2y Th\u1ea1nh, Q. T\u00e2n Ph\u00fa, HCM"},{"id":1670,"name":"PGD Qu\u1eadn 6","lat":10.753376,"lng":106.648929,"category":"Sacombank","city":"Long An","state":null,"postal":null,"phone":null,"address":"621 H\u1ed3ng B\u00e0ng, Ph\u01b0\u1eddng 06, Qu\u1eadn 06, TpHCM"},{"id":1671,"name":"PGD TN Qu\u1eadn 1","lat":10.767301,"lng":106.699533,"category":"Sacombank","city":"Long An","state":null,"postal":null,"phone":null,"address":"63 B CALMETTE, P.NGUY\u1ec4N TH\u00c1I B\u00ccNH, QU\u1eacN 1, TPHCM"},{"id":1672,"name":"PGD TN Bi\u00ean H\u00f2a","lat":10.95145,"lng":106.854609,"category":"Sacombank","city":"Long An","state":null,"postal":null,"phone":null,"address":"638 Ph\u1ea1m V\u0103n Thu\u1eadn, KP5, P.Tam Hi\u1ec7p, Tp. Bi\u00ean H\u00f2a, T. \u0110\u1ed3ng Nai"},{"id":1673,"name":"PGD Ph\u1ea1m Th\u1ebf Hi\u1ec3n","lat":10.74532,"lng":106.676691,"category":"Sacombank","city":"Long An","state":null,"postal":null,"phone":null,"address":"657-659A Ph\u1ea1m Th\u1ebf Hi\u1ec3n - Ph\u01b0\u1eddng 4 - Qu\u1eadn 8 - TP HCM"},{"id":1813,"name":"CN Pgd 3 Th\u00e1ng 2","lat":10.770316,"lng":106.672079,"category":"Sacombank","city":"Long An","state":null,"postal":null,"phone":"(028).3.8.680.383","address":"S\u1ed1 276 - 280 Ba Th\u00e1ng Hai, Ph\u01b0\u1eddng 12, Qu\u1eadn 10, Tp. H\u1ed3 Ch\u00ed Minh"},{"id":1814,"name":"CN Pgd An B\u00ecnh","lat":10.75393,"lng":106.669255,"category":"Sacombank","city":"Long An","state":null,"postal":null,"phone":"8.54052425","address":"99 Nguy\u1ec5n Tri Ph\u01b0\u01a1ng, P7, Q.5, Tp. H\u1ed3 Ch\u00ed Minh"},{"id":1815,"name":"CN Pgd An Nh\u01a1n","lat":10.841168,"lng":106.676348,"category":"Sacombank","city":"Long An","state":null,"postal":null,"phone":"08.39848134 - 08.39848135 - 08.39848136","address":"305-51\/570b Nguy\u1ec5n Oanh, P17, Q. G\u00f2 V\u1ea5p, Tp. H\u1ed3 Ch\u00ed Minh"},{"id":1816,"name":"CN Pgd An Nh\u01a1n T\u00e2y","lat":11.08828,"lng":106.513954,"category":"Sacombank","city":"Long An","state":null,"postal":null,"phone":"(028).37.947.123","address":"1476 T\u1ec9nh L\u1ed9 7,\u1ea4p Ch\u1ee3 C\u0169 , X\u00e3 An Nh\u01a1n T\u00e2y, Huy\u1ec7n C\u1ee7 Chi,Tp. H\u1ed3 Ch\u00ed Minh"},{"id":1817,"name":"CN Pgd An Ph\u00fa","lat":10.796124,"lng":106.73114,"category":"Sacombank","city":"Long An","state":null,"postal":null,"phone":"028.37402.651","address":"27 Tr\u1ea7n N\u00e3o, Ph\u01b0\u1eddng B\u00ecnh An, Qu\u1eadn 2, Tp. H\u1ed3 Ch\u00ed Minh"},{"id":1818,"name":"CN Pgd An S\u01b0\u01a1ng - Hm","lat":10.822584,"lng":106.630022,"category":"Sacombank","city":"Long An","state":null,"postal":null,"phone":"(08) 3592 1108","address":"132\/7 Tr\u01b0\u1eddng Chinh, Ph\u01b0\u1eddng T\u00e2n Th\u1edbi Nh\u1ea5t, Qu\u1eadn12, Tp.H\u1ed3 Ch\u00ed Minh"},{"id":1819,"name":"CN Pgd \u00c2u C\u01a1","lat":10.785514,"lng":106.641553,"category":"Sacombank","city":"Long An","state":null,"postal":null,"phone":"028.3975.1531","address":"615b \u00c2u C\u01a1, Ph\u01b0\u1eddng H\u00f2a Th\u1ea1nh, Qu\u1eadn T\u00e2n Ph\u00fa, Tp. H\u1ed3 Ch\u00ed Minh"},{"id":1820,"name":"CN Pgd \u00c2u L\u1ea1c","lat":10.775229,"lng":106.650216,"category":"Sacombank","city":"Long An","state":null,"postal":null,"phone":"3.9753.298","address":"286 \u00c2u C\u01a1, P9, Qu\u00e2\u0323N T\u00e2n Bi\u0300Nh, Tp. H\u1ed3 Ch\u00ed Minh."},{"id":1821,"name":"CN Pgd B\u00e0 Chi\u1ec3u","lat":10.802596,"lng":106.698857,"category":"Sacombank","city":"Long An","state":null,"postal":null,"phone":"028.3551 4205","address":"382 B\u00f9i H\u1eefu Ngh\u0129a, Ph\u01b0\u1eddng 2, Qu\u1eadn B\u00ecnh Th\u1ea1nh, Tp. H\u1ed3 Ch\u00ed Minh"},{"id":1822,"name":"CN Pgd B\u00e0 Hom","lat":10.758252,"lng":106.612431,"category":"Sacombank","city":"Long An","state":null,"postal":null,"phone":"37620760","address":"698 T\u1ec9nh L\u1ed9 10, Ph\u01b0\u1eddng B\u00ecnh Tr\u1ecb \u0110\u00f4ng, Qu\u1eadn B\u00ecnh T\u00e2n, Tp. Tp. H\u1ed3 Ch\u00ed Minh"},{"id":1823,"name":"CN Pgd B\u1eafc H\u1ea3i","lat":10.782427,"lng":106.664508,"category":"Sacombank","city":"Long An","state":null,"postal":null,"phone":"(84.28) 39 708 939","address":"Khu A ,24 Tr\u01b0\u1eddng S\u01a1n ,Phu\u1eddng 15 Qu\u1eadn 10.Tp. H\u1ed3 Ch\u00ed Minh"},{"id":1824,"name":"CN Pgd B\u1eafc T\u00e2n Uy\u00ean","lat":11.150851,"lng":106.844576,"category":"Sacombank","city":"Long An","state":null,"postal":null,"phone":"(0650) 3856 661","address":"S\u1ed1 124 T\u1ed5 5, \u1ea4p 3, X\u00e3 T\u00e2n Th\u00e0nh, Huy\u1ec7n B\u1eafc T\u00e2n Uy\u00ean, T\u1ec9nh B\u00ecnh D\u01b0\u01a1ng"},{"id":1825,"name":"CN Pgd B\u1ea1ch \u0110\u1eb1ng","lat":10.815503,"lng":106.673321,"category":"Sacombank","city":"Long An","state":null,"postal":null,"phone":"028.3547.4200","address":"T\u1ea7ng Tr\u1ec7t 121, 123 B\u1ea1ch \u0110\u1eb1ng, Ph\u01b0\u1eddng 2, Qu\u1eadn T\u00e2n B\u00ecnh, Tp. H\u1ed3 Ch\u00ed Minh"},{"id":1826,"name":"CN Pgd B\u1ebfn L\u1ee9c","lat":10.63647,"lng":106.489461,"category":"Sacombank","city":"Long An","state":null,"postal":null,"phone":"02723 633 441","address":"S\u1ed1 18a \u0110\u01b0\u1eddng Nguy\u1ec5n H\u1eefu Th\u1ecd, Khu Ph\u1ed1 3, Th\u1ecb Tr\u1ea5n B\u1ebfn L\u1ee9c, Huy\u1ec7n B\u1ebfn L\u1ee9c, T\u1ec9nh Long An"},{"id":1827,"name":"CN Pgd B\u00ecnh \u0110\u0103ng","lat":10.73502,"lng":106.656392,"category":"Sacombank","city":"Long An","state":null,"postal":null,"phone":"(08) 62635681","address":"287-289 Li\u00ean T\u1ec9nh 5, Ph\u01b0\u1eddng 5, Qu\u1eadn 8, Tp. H\u1ed3 Ch\u00ed Minh"},{"id":1828,"name":"CN Pgd B\u00ecnh H\u00f2a","lat":10.806099,"lng":106.697062,"category":"Sacombank","city":"Long An","state":null,"postal":null,"phone":"28.35510502","address":"95 L\u00ea Quang \u0110\u1ecbnh, Ph\u01b0\u1eddng 14, Qu\u1eadn B\u00ecnh Th\u1ea1nh, Tp. H\u1ed3 Ch\u00ed Minh"},{"id":1829,"name":"CN Pgd B\u00ecnh M\u1ef9","lat":10.973587,"lng":106.641603,"category":"Sacombank","city":"Long An","state":null,"postal":null,"phone":"0283. 7355777 - 78 - 79","address":"2004 Tl 8 \u1ea4p 1, X. B\u00ecnh M\u1ef9, H. C\u1ee7 Chi, Tp. H\u1ed3 Ch\u00ed Minh"},{"id":1830,"name":"CN Pgd B\u00ecnh Tri\u1ec7u","lat":10.830373,"lng":106.714184,"category":"Sacombank","city":"Long An","state":null,"postal":null,"phone":"028 62 839 548","address":"206 Qu\u1ed1c L\u1ed9 13, Ph\u01b0\u1eddng Hi\u1ec7p B\u00ecnh Ch\u00e1nh, Qu\u1eadn Th\u1ee7 \u0110\u1ee9c, Tp. H\u1ed3 Ch\u00ed Minh"},{"id":1831,"name":"CN Pgd B\u00ecnh Tr\u01b0ng T\u00e2y","lat":10.782024,"lng":106.760114,"category":"Sacombank","city":"Long An","state":null,"postal":null,"phone":"028.3743 8134","address":"S\u1ed1 332 - 334 Nguy\u1ec5n Th\u1ecb \u0110\u1ecbnh, Khu Ph\u1ed1 1, Ph\u01b0\u1eddng Th\u1ea1nh M\u1ef9 L\u1ee3i, Qu\u1eadn 2, Tp. H\u1ed3 Ch\u00ed Minh"},{"id":1832,"name":"CN Pgd Ca\u0301Ch Ma\u0323Ng Tha\u0301Ng 8","lat":10.780086,"lng":106.677711,"category":"Sacombank","city":"Long An","state":null,"postal":null,"phone":"028 3526 4361","address":"236-238 C\u00e1ch M\u1ea1ng Th\u00e1ng T\u00e1m, Ph\u01b0\u1eddng 10,Qu\u1eadn 3, Tp. H\u1ed3 Ch\u00ed Minh"},{"id":1833,"name":"CN Pgd C\u1ea9m M\u1ef9","lat":10.826752,"lng":107.340868,"category":"Sacombank","city":"Long An","state":null,"postal":null,"phone":"02513.646 159 - 02513.646 162","address":"283 \u1ea4p 8, X\u00e3 Xu\u00e2n T\u00e2y, Huy\u1ec7n C\u1ea9m M\u1ef9, T\u1ec9nh \u0110\u1ed3ng Nai"},{"id":1834,"name":"CN Pgd C\u1ea7n \u0110\u01b0\u1edbc","lat":10.504695,"lng":106.604754,"category":"Sacombank","city":"Long An","state":null,"postal":null,"phone":"02723.713 222","address":"22a, Ql50, Kp3, Tt C\u1ea7n \u0110\u01b0\u1edbc, H.C\u1ea7n \u0110\u01b0\u1edbc, Long An"},{"id":1835,"name":"CN Pgd C\u1ea7n Gi\u1edd","lat":10.38003,"lng":106.882953,"category":"Sacombank","city":"Long An","state":null,"postal":null,"phone":"028 3786.1601 (02, 03)","address":"199\/3 Duy\u00ean H\u1ea3i, Th\u1ecb Tr\u1ea5n C\u1ea7n Th\u1ea1nh, Huy\u1ec7n C\u1ea7n Gi\u1edd, Tp. H\u1ed3 Ch\u00ed Minh"},{"id":1836,"name":"CN Pgd C\u1ea7n Giu\u1ed9c","lat":10.604355,"lng":106.67187,"category":"Sacombank","city":"Long An","state":null,"postal":null,"phone":"(0272) 3 741 717; 3 741 718","address":"S\u1ed1 7 - 8 L\u00f4 A Kdc Th\u01b0\u01a1ng M\u1ea1i, Kp2, Tt. C\u1ea7n Giu\u1ed9c, H. C\u1ea7n Giu\u1ed9c, T. Long An."},{"id":1837,"name":"CN Pgd Cao Th\u1eafng","lat":10.77213,"lng":106.679435,"category":"Sacombank","city":"Long An","state":null,"postal":null,"phone":"283.8328972","address":"87-87a Cao Th\u1eafng, Ph\u01b0\u1eddng 03, Qu\u1eadn 03, Tp. Tp. H\u1ed3 Ch\u00ed Minh"},{"id":1838,"name":"CN Pgd C\u1ea7u Ki\u1ec7u","lat":10.798447,"lng":106.680776,"category":"Sacombank","city":"Long An","state":null,"postal":null,"phone":"(028) 3977 1467","address":"328a Phan \u0110\u00ecnh Ph\u00f9ng, Ph\u01b0\u1eddng 01, Qu\u1eadn Ph\u00fa Nhu\u1eadn, Tp.H\u1ed3 Ch\u00ed Minh"},{"id":1839,"name":"CN Pgd C\u00e2y G\u00f5","lat":10.750969,"lng":106.642128,"category":"Sacombank","city":"Long An","state":null,"postal":null,"phone":"(028).3.9.698.265 \/66 \/67","address":"119, 121 (Tr\u1ec7t(, 121a (T\u1ea7ng 2), 121b (T\u1ea7ng 3) Minh Ph\u1ee5ng - Ph\u01b0\u1eddng 9 - Qu\u1eadn 6 - Tp. H\u1ed3 Ch\u00ed Minh"},{"id":1840,"name":"CN Pgd C\u1ed9ng H\u00f2a","lat":10.800758,"lng":106.647152,"category":"Sacombank","city":"Long An","state":null,"postal":null,"phone":"28.3810788","address":"S\u1ed1 67 - 69 Ho\u00e0ng Hoa Th\u00e1m, Ph\u01b0\u1eddng 13, Qu\u1eadn T\u00e2n B\u00ecnh, Tp. H\u1ed3 Ch\u00ed Minh_x000D_"},{"id":1841,"name":"CN Pgd C\u1ed1ng Qu\u1ef3nh","lat":10.767575,"lng":106.686642,"category":"Sacombank","city":"Long An","state":null,"postal":null,"phone":"028.39259261-262","address":"260 C\u1ed1ng Qu\u1ef3nh, Ph\u01b0\u1eddng Ph\u1ea1m Ng\u0169 L\u00e3o, Qu\u1eadn 1, Tp. H\u1ed3 Ch\u00ed Minh"},{"id":1842,"name":"CN Pgd \u0110\u1ea1i Nam","lat":10.774494,"lng":106.688241,"category":"Sacombank","city":"Long An","state":null,"postal":null,"phone":"(84.28) 39 303 370","address":"158 V\u00f5 V\u0103n T\u1ea7n, Ph\u01b0\u1eddng 6, Qu\u1eadn 3, Tp. H\u1ed3 Ch\u00ed Minh"},{"id":1843,"name":"CN Pgd D\u1ea7u Ti\u1ebfng","lat":11.270958,"lng":106.35873,"category":"Sacombank","city":"Long An","state":null,"postal":null,"phone":"02743.522.997 - 02743.522.998","address":"03c\/13 Kp2 - Tt D\u1ea7u Ti\u1ebfng - Huy\u1ec7n D\u1ea7u Ti\u1ebfng - B\u00ecnh D\u01b0\u01a1ng"},{"id":1844,"name":"CN Pgd \u0110\u1ecbnh Qu\u00e1n","lat":11.223673,"lng":107.390797,"category":"Sacombank","city":"Long An","state":null,"postal":null,"phone":"0251.3616.117-0251.3616.118","address":"\u1ea4p 1 , X\u00e3 Ph\u00fa L\u1ee3i, Huy\u1ec7n \u0110\u1ecbnh Qu\u00e1n, T\u1ec9nh \u0110\u1ed3ng Nai"},{"id":1845,"name":"CN Pgd \u0110\u00f4ng H\u00f2a","lat":10.968737,"lng":107.030458,"category":"Sacombank","city":"Long An","state":null,"postal":null,"phone":"0251.3868.819","address":"S\u1ed1 580, Ql1a, \u1ea4p B\u00e0u C\u00e1, X\u00e3 Trung H\u00f2a, Huy\u1ec7n Tr\u1ea3ng Bom, T\u1ec9nh \u0110\u1ed3ng Nai"},{"id":1846,"name":"CN Pgd \u0110\u00f4ng H\u01b0ng Thu\u1eadn","lat":10.840858,"lng":106.624262,"category":"Sacombank","city":"Long An","state":null,"postal":null,"phone":"8.38833994","address":"230 Tr\u01b0\u1eddng Chinh P. T\u00e2n H\u01b0ng Thu\u1eadn Qu\u1eadn 12, Tp. H\u1ed3 Ch\u00ed Minh"},{"id":1847,"name":"CN Pgd \u0110\u1ed3ng Kh\u00e1nh","lat":10.757087,"lng":106.673548,"category":"Sacombank","city":"Long An","state":null,"postal":null,"phone":"08.38.384.128","address":"254-256-258 Tr\u1ea7n Ph\u00fa, Ph\u01b0\u1eddng 8, Qu\u1eadn 5, Tp. H\u1ed3 Ch\u00ed Minh"},{"id":1848,"name":"CN Pgd \u0110\u00f4ng Th\u1ea1nh","lat":10.906348,"lng":106.640001,"category":"Sacombank","city":"Long An","state":null,"postal":null,"phone":"(028) 3711 5590 - (028) 3711 5593","address":"55t \u0110\u1eb7ng Th\u00fac V\u1ecbnh, X\u00e3 \u0110\u00f4ng Th\u1ea1nh, Huy\u1ec7n H\u00f3c M\u00f4n, Tp. H\u1ed3 Ch\u00ed Minh"},{"id":1849,"name":"CN Pgd \u0110\u1ee9c H\u00f2a","lat":10.825439,"lng":106.459571,"category":"Sacombank","city":"Long An","state":null,"postal":null,"phone":"(0272) 3.763971\/763976","address":"531c, Kp3, Th\u1ecb Tr\u1ea5n \u0110\u1ee9c H\u00f2a, Huy\u1ec7n \u0110\u1ee9c H\u00f2a, T\u1ec9nh Long An"},{"id":1850,"name":"CN Pgd G\u00f2 \u0110en","lat":10.641259,"lng":106.517163,"category":"Sacombank","city":"Long An","state":null,"postal":null,"phone":"0272 3637 551-552","address":"31 Qu\u1ed1c L\u1ed9 1a, \u1ea4p Long B\u00ecnh, X\u00e3 Long Hi\u1ec7p, Huy\u1ec7n B\u1ebfn L\u1ee9c, T\u1ec9nh Long An"},{"id":1851,"name":"CN Pgd G\u00f2 M\u00e2y","lat":10.814998,"lng":106.604761,"category":"Sacombank","city":"Long An","state":null,"postal":null,"phone":"(028)3765 8990","address":"710 L\u00ea Tr\u1ecdng T\u1ea5n, Ph\u01b0\u1eddng B\u00ecnh H\u01b0ng H\u00f2a, Qu\u1eadn B\u00ecnh T\u00e2n, Tp. H\u1ed3 Ch\u00ed Minh"},{"id":1852,"name":"CN Pgd H\u00e0ng Xanh","lat":10.801361,"lng":106.71441,"category":"Sacombank","city":"Long An","state":null,"postal":null,"phone":"028.3512.7860","address":"481b \u0110i\u1ec7n Bi\u00ean Ph\u1ee7, Ph\u01b0\u1eddng 25, Qu\u1eadn B\u00ecnh Th\u1ea1nh, Tp. H\u1ed3 Ch\u00ed Minh"},{"id":1853,"name":"CN Pgd Hi\u1ec7p B\u00ecnh","lat":10.848908,"lng":106.720124,"category":"Sacombank","city":"Long An","state":null,"postal":null,"phone":"(028) 3727 3651","address":"41b Hi\u1ec7p B\u00ecnh, Kp6, P.Hi\u1ec7p B\u00ecnh Ph\u01b0\u1edbc, Q.Th\u1ee7 \u0110\u1ee9c, Tp. H\u1ed3 Ch\u00ed Minh"},{"id":1854,"name":"CN Pgd Hi\u1ec7p Ph\u01b0\u1edbc","lat":10.648705,"lng":106.730518,"category":"Sacombank","city":"Long An","state":null,"postal":null,"phone":"(08)37801266","address":"162a Nguy\u1ec5n V\u0103n T\u1ea1o, \u1ea4p 2, X\u00e3 Long Th\u1edbi, H.Nh\u00e0 B\u00e8, Tp. H\u1ed3 Ch\u00ed Minh"},{"id":1855,"name":"CN Pgd Hi\u1ec7p Th\u00e0nh","lat":10.876561,"lng":106.646569,"category":"Sacombank","city":"Long An","state":null,"postal":null,"phone":"8.37178389","address":"3a Nguy\u1ec5n \u1ea2nh Th\u1ee7, Ph\u01b0\u1eddng Hi\u1ec7p Th\u00e0nh, Qu\u1eadn 12, Tp. Tp. H\u1ed3 Ch\u00ed Minh"},{"id":1856,"name":"CN Pgd H\u00f2a H\u1ea3o","lat":10.763996,"lng":106.672081,"category":"Sacombank","city":"Long An","state":null,"postal":null,"phone":"(028) 3 830 2545","address":"187 Ng\u00f4 Gia T\u1ef1, Ph\u01b0\u1eddng 3, Qu\u1eadn 10, Tp. H\u1ed3 Ch\u00ed Minh"},{"id":1857,"name":"CN Pgd H\u00f2a H\u01b0ng","lat":10.7823,"lng":106.671574,"category":"Sacombank","city":"Long An","state":null,"postal":null,"phone":"(028).38680600","address":"S\u1ed1 35 T\u00f4 Hi\u1ebfn Th\u00e0nh, Ph\u01b0\u1eddng 13, Qu\u1eadn 10, Tp. H\u1ed3 Ch\u00ed Minh"},{"id":1858,"name":"CN Pgd H\u00f2a L\u1ee3i","lat":11.130997,"lng":106.612921,"category":"Sacombank","city":"Long An","state":null,"postal":null,"phone":"0274 3579.880","address":"S\u1ed1 39, Khu Ph\u1ed1 An H\u00f2a, Ph\u01b0\u1eddng H\u00f2a L\u1ee3i, Th\u1ecb X\u00e3 B\u1ebfn C\u00e1t, B\u00ecnh D\u01b0\u01a1ng"},{"id":1859,"name":"CN Pgd Ho\u00e0ng Hoa Th\u00e1m","lat":10.805441,"lng":106.690792,"category":"Sacombank","city":"Long An","state":null,"postal":null,"phone":"028 62937927","address":"29a Ho\u00e0ng Hoa Th\u00e1m, Ph\u01b0\u1eddng 6, Qu\u1eadn B\u00ecnh Th\u1ea1nh, Tp. H\u1ed3 Ch\u00ed Minh"},{"id":1860,"name":"CN Pgd Ho\u00e0ng Mai","lat":10.848555,"lng":106.667034,"category":"Sacombank","city":"Long An","state":null,"postal":null,"phone":"39.168.660 - 39.168.661","address":"602 - 604 L\u00ea \u0110\u1ee9c Th\u1ecd, Ph\u01b0\u1eddng 15, Qu\u1eadn G\u00f2 V\u1ea5p, Tp. H\u1ed3 Ch\u00ed Minh"},{"id":1861,"name":"CN Pgd H\u1ed3ng B\u00e0ng","lat":10.753494,"lng":106.653151,"category":"Sacombank","city":"Long An","state":null,"postal":null,"phone":"08.38.55 22 07","address":"517 H\u1ed3ng B\u00e0ng, Ph\u01b0\u1eddng 14, Qu\u1eadn 5, Tp. H\u1ed3 Ch\u00ed Minh"},{"id":1862,"name":"CN Pgd H\u01b0ng Ph\u00fa","lat":10.768359,"lng":106.650802,"category":"Sacombank","city":"Long An","state":null,"postal":null,"phone":"39740899 - 39741667","address":"58 B\u00ecnh Th\u1edbi, Ph\u01b0\u1eddng 14, Qu\u1eadn 11, Tp. H\u1ed3 Ch\u00ed Minh"},{"id":1863,"name":"CN Pgd Hu\u1ef3nh T\u1ea5n Ph\u00e1t","lat":10.721813,"lng":106.736153,"category":"Sacombank","city":"Long An","state":null,"postal":null,"phone":"028. 3773 3466 \/ 67 \/ 68","address":"1001 Hu\u1ef3nh T\u1ea5n Ph\u00e1t, Kp2, Ph\u01b0\u1eddng Ph\u00fa Thu\u1eadn, Qu\u1eadn 7, Tp. H\u1ed3 Ch\u00ed Minh"},{"id":1864,"name":"CN Pgd Hu\u1ef3nh Th\u00fac Kh\u00e1ng","lat":10.773341,"lng":106.703075,"category":"Sacombank","city":"Long An","state":null,"postal":null,"phone":"028.3914 7486 - 3914.7487 - 3821 6476","address":"2-4-6 Hu\u1ef3nh Th\u00fac Kh\u00e1ng, P. B\u1ebfn Ngh\u00e9, Q.1, Tp. H\u1ed3 Ch\u00ed Minh"},{"id":1865,"name":"CN Pgd Kha V\u1ea1n C\u00e2n","lat":10.850803,"lng":106.754817,"category":"Sacombank","city":"Long An","state":null,"postal":null,"phone":null,"address":"993 Kha V\u1ea1n C\u00e2n, Khu Ph\u1ed1 1, Ph\u01b0\u1eddng Linh T\u00e2y, Qu\u1eadn Th\u1ee7 \u0110\u1ee9c, Tp. H\u1ed3 Ch\u00ed Minh"},{"id":1866,"name":"CN Pgd Kh\u00e1nh H\u1ed9i","lat":10.758315,"lng":106.69937,"category":"Sacombank","city":"Long An","state":null,"postal":null,"phone":"(028) 3943 2113 - 14 - 15","address":"215 Kh\u00e1nh H\u1ed9i, Ph\u01b0\u1eddng 3, Qu\u1eadn 4, Tp.H\u1ed3 Ch\u00ed Minh"},{"id":1867,"name":"CN Pgd Ki\u1ebfn T\u01b0\u1eddng","lat":10.537993,"lng":106.415,"category":"Sacombank","city":"Long An","state":null,"postal":null,"phone":"0272.3958.333","address":"53 - 55 - 57 H\u00f9ng V\u01b0\u01a1ng, Khu Ph\u1ed1 1, Ph\u01b0\u1eddng 1, Th\u1ecb X\u00e3 Ki\u1ebfn T\u01b0\u1eddng, T\u1ec9nh Long An"},{"id":1868,"name":"CN Pgd K\u1ef3 H\u00f2a","lat":10.771366,"lng":106.670104,"category":"Sacombank","city":"H\u1ed3 Ch\u00ed Minh","state":null,"postal":null,"phone":"(028).39797660","address":"S\u1ed1 453 S\u01b0 V\u1ea1n H\u1ea1nh N\u1ed1i D\u00e0i, Ph\u01b0\u1eddng 12, Qu\u1eadn 10, Tp. H\u1ed3 Ch\u00ed Minh"},{"id":1869,"name":"CN Pgd L\u1ea1c Long Qu\u00e2n","lat":10.770822,"lng":106.644955,"category":"Sacombank","city":"Long An","state":null,"postal":null,"phone":"3.9750.981","address":"349k-349l La\u0323C Long Qu\u00e2n, P5, Qu\u00e2\u0323N 11, Tp. H\u1ed3 Ch\u00ed Minh"},{"id":1870,"name":"CN Pgd L\u00e3nh Binh Th\u0103ng","lat":10.764494,"lng":106.648565,"category":"Sacombank","city":"Long An","state":null,"postal":null,"phone":"3.9650.935","address":"294-294a La\u0303Nh Binh Th\u0103ng, P11, Qu\u00e2\u0323N 11, Tp. H\u1ed3 Ch\u00ed Minh"},{"id":1871,"name":"CN Pgd L\u00ea \u0110\u1ea1i H\u00e0nh","lat":10.766121,"lng":106.65419,"category":"Sacombank","city":"Long An","state":null,"postal":null,"phone":"028.39.650.442","address":"347 L\u00ea \u0110\u1ea1i H\u00e0nh, P13, Qu\u1eadn 11, Tp. H\u1ed3 Ch\u00ed Minh"},{"id":1872,"name":"CN Pgd L\u00ea Th\u00e1nh T\u00f4n","lat":10.775091,"lng":106.700188,"category":"Sacombank","city":"Long An","state":null,"postal":null,"phone":"028. 3823 5627","address":"103 L\u00ea Th\u00e1nh T\u00f4n, Ph\u01b0\u1eddng B\u1ebfn Ngh\u00e9, Qu\u1eadn 1, Tp. H\u1ed3 Ch\u00ed Minh"},{"id":1873,"name":"CN Pgd L\u00ea V\u0103n S\u1ef9","lat":10.786632,"lng":106.680456,"category":"Sacombank","city":"Long An","state":null,"postal":null,"phone":"028. 3931 2523","address":"260 L\u00ea V\u0103n Sy\u0303, Ph\u01b0\u01a1\u0300Ng 14, Qu\u00e2\u0323N 3, Tp. Tp. H\u1ed3 Ch\u00ed Minh"},{"id":1874,"name":"CN Pgd Long B\u00ecnh T\u00e2n","lat":10.901968,"lng":106.852879,"category":"Sacombank","city":"Long An","state":null,"postal":null,"phone":"02518.826.600","address":"C2\/9 Kp1, P.Long B\u00ecnh T\u00e2n, Tp.Bi\u00ean H\u00f2a, T\u1ec9nh \u0110\u1ed3ng Nai"},{"id":1875,"name":"CN Pgd Long Th\u00e0nh","lat":10.782935,"lng":106.951357,"category":"Sacombank","city":"Long An","state":null,"postal":null,"phone":"0251.3501.976\/77","address":"T\u1ed5 2 Khu Ph\u01b0\u1edbc H\u1ea3i, Ql 51 Tt Long Th\u00e0nh, H. Long Th\u00e0nh, T\u1ec9nh \u0110\u1ed3ng Nai"},{"id":1876,"name":"CN Pgd L\u01b0\u01a1ng \u0110\u1ecbnh C\u1ee7a","lat":10.788082,"lng":106.734704,"category":"Sacombank","city":"Long An","state":null,"postal":null,"phone":null,"address":"171 L\u01b0\u01a1ng \u0110\u1ecbnh C\u1ee7a, Ph\u01b0\u1eddng B\u00ecnh An, Qu\u1eadn 2, Tp. H\u1ed3 Ch\u00ed Minh"},{"id":1877,"name":"CN Pgd L\u00fd Th\u01b0\u1eddng Ki\u1ec7t","lat":10.770886,"lng":106.657998,"category":"Sacombank","city":"Long An","state":null,"postal":null,"phone":"3.957.3139","address":"104 - 106 L\u00fd Th\u01b0\u1eddng Ki\u1ec7t, Ph\u01b0\u1eddng 09, Qu\u1eadn 10, Tp. H\u1ed3 Ch\u00ed Minh"},{"id":1878,"name":"CN Pgd M\u00e3 L\u00f2","lat":10.773751,"lng":106.601673,"category":"Sacombank","city":"Long An","state":null,"postal":null,"phone":"(028) 37620255","address":"310 D M\u00e3 L\u00f2 P B\u00ecnh Tr\u1ecb \u0110\u00f4ng A Q B\u00ecnh T\u00e2n Tp. H\u1ed3 Ch\u00ed Minh"},{"id":1879,"name":"CN Pgd Minh Khai","lat":10.765808,"lng":106.681444,"category":"Sacombank","city":"Long An","state":null,"postal":null,"phone":"8.39381803","address":"530-532 Nguy\u1ec5n Th\u1ecb Minh Khai, Ph\u01b0\u1eddng 2, Qu\u1eadn 3, Tp. H\u1ed3 Ch\u00ed Minh"},{"id":1880,"name":"CN Pgd M\u1ed9c H\u00f3a","lat":10.537993,"lng":106.415,"category":"Sacombank","city":"Long An","state":null,"postal":null,"phone":"02723.958.330 - 02723.958.332","address":"53,55,57 H\u00f9ng V\u01b0\u01a1ng, Kp 1, Ph\u01b0\u1eddng 1, Tx Ki\u1ebfn T\u01b0\u1eddng, Long An"},{"id":1881,"name":"CN Pgd Nam Ky\u0300 Kh\u01a1\u0309I Nghi\u0303A","lat":10.788242,"lng":106.685785,"category":"Sacombank","city":"Long An","state":null,"postal":null,"phone":"28.39320256","address":"278 Nam K\u1ef3 Kh\u1edfi Ngh\u0129a , Ph\u01b0\u1eddng 8, Qu\u1eadn 3, Tp. H\u1ed3 Ch\u00ed Minh"},{"id":1882,"name":"CN Pgd Ng\u00f4 Quy\u1ec1n","lat":10.765738,"lng":106.663975,"category":"Sacombank","city":"Long An","state":null,"postal":null,"phone":"(028) 3 957 4338","address":"S\u1ed1 271 Ng\u00f4 Quy\u1ec1n, Ph\u01b0\u1eddng 6, Qu\u1eadn 10, Tp. H\u1ed3 Ch\u00ed Minh"},{"id":1883,"name":"CN Pgd Nguy\u1ec5n Ch\u00ed Thanh","lat":10.758306,"lng":106.661962,"category":"Sacombank","city":"Long An","state":null,"postal":null,"phone":"(028) 3957 3712","address":"197 Nguy\u1ec5n Ch\u00ed Thanh, Ph\u01b0\u1eddng 12, Qu\u1eadn 5, Tp. H\u1ed3 Ch\u00ed Minh"},{"id":1884,"name":"CN Pgd Nguy\u1ec5n C\u00f4ng Tr\u1ee9","lat":10.770054,"lng":106.703619,"category":"Sacombank","city":"Long An","state":null,"postal":null,"phone":"(028)39.153.792","address":"S\u1ed1 44-50, 52, 54 \u0110\u01b0\u1eddng Nguy\u1ec5n C\u00f4ng Tr\u1ee9 V\u00e0 S\u1ed1 41 \u0110\u01b0\u1eddng T\u00f4n Th\u1ea5t \u0110\u1ea1m, Ph\u01b0\u1eddng Nguy\u1ec5n Th\u00e1i B\u00ecnh, Qu\u1eadn 1, Th\u00e0nh Ph\u1ed1 H\u1ed3 Ch\u00ed Minh, Vi\u1ec7t Nam"},{"id":1885,"name":"CN Pgd Nguy\u1ec5n Duy D\u01b0\u01a1ng","lat":10.757655,"lng":106.671456,"category":"Sacombank","city":"Long An","state":null,"postal":null,"phone":"28.3830064","address":"81 Nguy\u1ec5n Duy D\u01b0\u01a1ng, Ph\u01b0\u1eddng 9, Qu\u1eadn 5, Th\u00e0nh Ph\u1ed1 H\u1ed3 Ch\u00ed Minh"},{"id":1886,"name":"CN Pgd Nguy\u1ec5n Duy Trinh","lat":10.787833,"lng":106.775533,"category":"Sacombank","city":"Long An","state":null,"postal":null,"phone":"028.3742.3865","address":"205 Nguy\u1ec5n Duy Trinh, Ph\u01b0\u1eddng B\u00ecnh Tr\u01b0ng T\u00e2y, Qu\u1eadn 2, Tp. H\u1ed3 Ch\u00ed Minh"},{"id":1887,"name":"CN Pgd Nguy\u1ec5n H\u1eefu Th\u1ecd","lat":10.739786,"lng":106.704637,"category":"Sacombank","city":"Long An","state":null,"postal":null,"phone":"028.3781.5135","address":"31, 33 Khu Ph\u1ed1 Kim Long - Nguy\u1ec5n H\u1eefu Th\u1ecd - Ph\u01b0\u1eddng Phu\u1edbc Ki\u1ec3n - Huy\u1ec7n Nh\u00e0 B\u00e8 - Tp. H\u1ed3 Ch\u00ed Minh"},{"id":1888,"name":"CN Pgd Nguy\u1ec5n Th\u00e1i B\u00ecnh","lat":10.768217,"lng":106.698374,"category":"Sacombank","city":"Long An","state":null,"postal":null,"phone":"28.39153312","address":"132 Nguy\u1ec5n Th\u00e1i B\u00ecnh, Ph\u01b0\u1eddng Nguy\u1ec5n Th\u00e1i B\u00ecnh, Qu\u1eadn 1, Tp. H\u1ed3 Ch\u00ed Minh"},{"id":1889,"name":"CN Pgd Nguy\u1ec5n Th\u00e1i S\u01a1n","lat":10.822653,"lng":106.685094,"category":"Sacombank","city":"Long An","state":null,"postal":null,"phone":"028.35 8888 95 - 35 8888 96","address":"135-137 Nguy\u1ec5n Th\u00e1i S\u01a1n, Ph\u01b0\u1eddng 4, G\u00f2 V\u1ea5p, Tp. H\u1ed3 Ch\u00ed Minh"},{"id":1890,"name":"CN Pgd Nguy\u1ec5n Tri Ph\u01b0\u01a1ng - \u0110bp","lat":10.767163,"lng":106.667051,"category":"Sacombank","city":"Long An","state":null,"postal":null,"phone":"(848) 3853 2627","address":"539a Nguy\u1ec5n Tri Ph\u01b0\u01a1ng, Ph\u01b0\u1eddng 8, Qu\u1eadn 10, Tp. H\u1ed3 Ch\u00ed Minh"},{"id":1891,"name":"CN Pgd Nguy\u1ec5n V\u0103n Lu\u00f4ng","lat":10.747245,"lng":106.632613,"category":"Sacombank","city":"Long An","state":null,"postal":null,"phone":"028.37555983; 028.37555982; 028.37555984","address":"697-699 H\u1eadu Giang, P.11, Q.6, Tp. H\u1ed3 Ch\u00ed Minh"},{"id":1892,"name":"CN Pgd Nguy\u1ec5n V\u0103n Nghi","lat":10.823695,"lng":106.687392,"category":"Sacombank","city":"Long An","state":null,"postal":null,"phone":"028 3894 1001 - 028 3985 5584 - 028 3895 4207","address":"134-136 Nguy\u1ec5n V\u0103n Nghi, P.5, Q. G\u00f2 V\u1ea5p, Tp. Tp. H\u1ed3 Ch\u00ed Minh"},{"id":1893,"name":"CN Pgd Nh\u01a1n Tr\u1ea1ch","lat":10.737264,"lng":106.942334,"category":"Sacombank","city":"Long An","state":null,"postal":null,"phone":"0251 3 540 006 - 008","address":"112a T\u00f4n \u0110\u1ee9c Th\u1eafng, \u1ea4p 3, X\u00e3 Hi\u1ec7p Ph\u01b0\u1edbc, Huy\u1ec7n Nh\u01a1n Tr\u1ea1ch, T\u1ec9nh \u0110\u1ed3ng Nai"},{"id":1894,"name":"CN Pgd Ni S\u01b0 Hu\u1ef3nh Li\u00ean","lat":10.78341,"lng":106.647366,"category":"Sacombank","city":"Long An","state":null,"postal":null,"phone":"08 54348162-64","address":"129 Ni S\u01b0 Hu\u1ef3nh Li\u00ean, P.10, Q.T\u00e2n B\u00ecnh, Tp.H\u1ed3 Ch\u00ed Minh"},{"id":1895,"name":"CN Pgd N\u01a1 Trang Long","lat":10.812663,"lng":106.697866,"category":"Sacombank","city":"Long An","state":null,"postal":null,"phone":"(028)35162227","address":"202-204 N\u01a1 Trang Long, Ph\u01b0\u1eddng 12, Qu\u1eadn B\u00ecnh Th\u1ea1nh, Tp. H\u1ed3 Ch\u00ed Minh"},{"id":1896,"name":"CN Pgd Ph\u1ea1m Ng\u1ecdc Th\u1ea1ch","lat":10.784985,"lng":106.693087,"category":"Sacombank","city":"Long An","state":null,"postal":null,"phone":"28.38207804","address":"49 Pham Ngoc Thach, P6,Q3,Tp. H\u1ed3 Ch\u00ed Minh"},{"id":1897,"name":"CN Pgd Ph\u1ea1m Th\u1ebf Hi\u1ec3n","lat":10.74532,"lng":106.676691,"category":"Sacombank","city":"Long An","state":null,"postal":null,"phone":"38520220","address":"657-659a Ph\u1ea1m Th\u1ebf Hi\u1ec3n - Ph\u01b0\u1eddng 4 - Qu\u1eadn 8 - Tp. H\u1ed3 Ch\u00ed Minh"},{"id":1898,"name":"CN Pgd Ph\u1ea1m V\u0103n Ch\u00ed","lat":10.7435,"lng":106.644425,"category":"Sacombank","city":"Long An","state":null,"postal":null,"phone":"08-39.676.172","address":"129-131 Ph\u1ea1m Ph\u00fa Th\u1ee9, P.3, Q.6, Tp. H\u1ed3 Ch\u00ed Minh"},{"id":1899,"name":"CN Pgd Phan Huy \u00cdch","lat":10.838428,"lng":106.639463,"category":"Sacombank","city":"Long An","state":null,"postal":null,"phone":"(028).39878587","address":"60\/12 Phan Huy \u00cdch, Ph\u01b0\u1eddng 12, Qu\u1eadn G\u00f2 V\u1ea5p, Tp. H\u1ed3 Ch\u00ed Minh"},{"id":1900,"name":"CN Pgd Phan V\u0103n Tr\u1ecb","lat":10.818379,"lng":106.69495,"category":"Sacombank","city":"Long An","state":null,"postal":null,"phone":"(028)62 581 984","address":"334n -334p Phan V\u0103n Tr\u1ecb, Ph\u01b0\u1eddng 11, Qu\u1eadn B\u00ecnh Th\u1ea1nh, Tp. H\u1ed3 Ch\u00ed Minh"},{"id":1901,"name":"CN Pgd Ph\u00f3 C\u01a1 \u0110i\u1ec1u","lat":10.759058,"lng":106.656949,"category":"Sacombank","city":"Long An","state":null,"postal":null,"phone":"(028)39560.951 - (028)39560952 - (028)39560.953","address":"121 - 123 Ph\u00f3 C\u01a1 \u0110i\u1ec1u, P.4, Q.11, Tp. H\u1ed3 Ch\u00ed Minh"},{"id":1902,"name":"CN Pgd Ph\u00f4\u0309 Quang","lat":10.804691,"lng":106.666336,"category":"Sacombank","city":"Long An","state":null,"postal":null,"phone":"028.3997.9887","address":"3g Ph\u1ed5 Quang, Ph\u01b0\u1eddng 2, Qu\u1eadn T\u00e2n B\u00ecnh, Tp. H\u1ed3 Ch\u00ed Minh"},{"id":1903,"name":"CN Pgd Ph\u00fa Gi\u00e1o","lat":11.288496,"lng":106.793077,"category":"Sacombank","city":"Long An","state":null,"postal":null,"phone":"0274.3675.140- 0274.3675.141","address":"53 \u0110t 741 Kp2- Tt Ph\u01b0\u1edbc V\u0129nh - H.Ph\u00fa Gi\u00e1o - T\u1ec9nh B\u00ecnh D\u01b0\u01a1ng"},{"id":1904,"name":"CN Pgd Ph\u00fa H\u00f2a","lat":10.791782,"lng":106.65275,"category":"Sacombank","city":"Long An","state":null,"postal":null,"phone":"(028) 3971 7329","address":"105 - 107 L\u00fd Th\u01b0\u1eddng Ki\u1ec7t, Ph\u01b0\u1eddng 7, Qu\u1eadn T\u00e2n B\u00ecnh, Tp H\u1ed3 Ch\u00ed Minh"},{"id":1905,"name":"CN Pgd Ph\u00fa L\u00e2m","lat":10.754977,"lng":106.629505,"category":"Sacombank","city":"Long An","state":null,"postal":null,"phone":"(028)3.7515.257","address":"66 Bis B\u00e0 Hom, P.13, Qu\u00e2\u0323N 6, Tp. H\u1ed3 Ch\u00ed Minh"},{"id":1906,"name":"CN Pgd Ph\u00fa L\u1ee3i","lat":10.982922,"lng":106.676192,"category":"Sacombank","city":"Long An","state":null,"postal":null,"phone":"274.3856661","address":"301 \u0110\u01b0\u1eddng Ph\u00fa L\u1ee3i, Ph\u01b0\u1eddng Ph\u00fa L\u1ee3i, Tp Th\u1ee7 D\u1ea7u M\u1ed9t, T\u00ecnh B\u00ecnh D\u01b0\u01a1ng"},{"id":1907,"name":"CN Pgd Ph\u00fa M\u1ef9 H\u01b0ng","lat":10.727953,"lng":106.710209,"category":"Sacombank","city":"Long An","state":null,"postal":null,"phone":"(028).5.4.121.631","address":"17 Khu Ph\u1ed1 M\u1ef9 Ho\u00e0ng - H5 - Ph\u01b0\u1eddng T\u00e2n Phong - Qu\u1eadn 7 - Tp. H\u1ed3 Ch\u00ed Minh"},{"id":1908,"name":"CN Pgd Ph\u00fa Trung","lat":10.772203,"lng":106.646499,"category":"Sacombank","city":"Long An","state":null,"postal":null,"phone":"028-39755611","address":"558 L\u1ea1c Long Qu\u00e2n, Ph\u01b0\u1eddng 5, Qu\u1eadn 11, Tp. H\u1ed3 Ch\u00ed Minh"},{"id":1909,"name":"CN Pgd Ph\u01b0\u1edbc Th\u1ea1nh","lat":11.006147,"lng":106.426814,"category":"Sacombank","city":"Long An","state":null,"postal":null,"phone":"(028) 3 7911047 - 48 - 49","address":"862a Qu\u1ed1c L\u1ed9 22, \u1ea4p Ph\u01b0\u1edbc L\u1ed9c, X\u00e3 Ph\u01b0\u1edbc Th\u1ea1nh, Huy\u1ec7n C\u1ee7 Chi, Tp. H\u1ed3 Ch\u00ed Minh"},{"id":1910,"name":"CN Pgd Ph\u01b0\u01a1ng L\u00e2m","lat":11.283295,"lng":107.485768,"category":"Sacombank","city":"Long An","state":null,"postal":null,"phone":"0251.3 665 455 -- 0251.3 665 456","address":"Ql 20 \u1ea4p Thanh Th\u1ecd 1, X\u00e3 Ph\u00fa L\u00e2m, H. T\u00e2n Ph\u00fa, T\u1ec9nh \u0110\u1ed3ng Nai"},{"id":1911,"name":"CN Pgd Qu\u1eadn 10","lat":10.760398,"lng":106.661059,"category":"Sacombank","city":"Long An","state":null,"postal":null,"phone":"(028) 5405 2660","address":"S\u1ed1 90a4 - 90a5 L\u00fd Th\u01b0\u1eddng Ki\u1ec7t, Ph\u01b0\u1eddng 14, Qu\u1eadn 10, Tp. H\u1ed3 Ch\u00ed Minh"},{"id":1912,"name":"CN Pgd Qu\u1eadn 6","lat":10.753442,"lng":106.648916,"category":"Sacombank","city":"Long An","state":null,"postal":null,"phone":"(028) 39699840 - 39699841 - 39699842","address":"621 H\u1ed3ng B\u00e0ng, Ph\u01b0\u1eddng 06, Qu\u1eadn 06, Tp. H\u1ed3 Ch\u00ed Minh"},{"id":1913,"name":"CN Pgd Qu\u1ed1c L\u1ed9 1k","lat":10.907127,"lng":106.794797,"category":"Sacombank","city":"Long An","state":null,"postal":null,"phone":"0274.3772.224","address":"337, Ql1k, Khu Ph\u1ed1 \u0110\u00f4ng A, Ph\u01b0\u1eddng \u0110\u00f4ng H\u00f2a, Th\u1ecb X\u00e3 D\u0129 An, T\u1ec9nh B\u00ecnh D\u01b0\u01a1ng"},{"id":1914,"name":"CN Pgd R\u1ea1ch \u00d4ng","lat":10.745509,"lng":106.686446,"category":"Sacombank","city":"Long An","state":null,"postal":null,"phone":"(08) 39830134","address":"166-168-16p Nguy\u1ec5n Th\u1ecb T\u1ea7n, P.2, Q.8, Tp. H\u1ed3 Ch\u00ed Minh"},{"id":1915,"name":"CN Pgd S\u01b0 V\u1ea1n H\u1ea1nh","lat":10.776903,"lng":106.666088,"category":"Sacombank","city":"Long An","state":null,"postal":null,"phone":"(028) 3979 8981","address":"836-838 S\u01b0 V\u1ea1n H\u1ea1nh (N\u1ed1i D\u00e0i), Ph\u01b0\u1eddng 13, Qu\u1eadn 10, Tp. H\u1ed3 Ch\u00ed Minh"},{"id":1916,"name":"CN Pgd Tam H\u00e0","lat":10.858368,"lng":106.748883,"category":"Sacombank","city":"Long An","state":null,"postal":null,"phone":"028. 37 205 335","address":"273-273a T\u00f4 Ng\u1ecdc V\u00e2n, Ph\u01b0\u1eddng Linh \u0110\u00f4ng, Qu\u1eadn Th\u1ee7 \u0110\u1ee9c, Tp. H\u1ed3 Ch\u00ed Minh"},{"id":1917,"name":"CN Pgd T\u00e2n An","lat":10.538176,"lng":106.415156,"category":"Sacombank","city":"Long An","state":null,"postal":null,"phone":"723.553799","address":"25 Nguy\u1ec5n \u0110\u00ecnh Chi\u1ec3u, Ph\u01b0\u1eddng 1, Tp T\u00e2n An, T\u1ec9nh Long An"},{"id":1918,"name":"CN Pgd T\u00e2n H\u01b0\u01a1ng","lat":10.789678,"lng":106.618078,"category":"Sacombank","city":"Long An","state":null,"postal":null,"phone":"(84.8) 35 594 253","address":"161-163 T\u00e2n H\u01b0\u01a1ng, P. T\u00e2n Q\u00fay, Q. T\u00e2n Ph\u00fa, Tp. H\u1ed3 Ch\u00ed Minh"},{"id":1919,"name":"CN Pgd T\u00e2n Phong","lat":10.969507,"lng":106.853247,"category":"Sacombank","city":"Long An","state":null,"postal":null,"phone":"02513.890.531 - 02513.890.532","address":"S\u1ed1 93\/81\/6, \u0110\u01b0\u1eddng \u0110\u1ed3ng Kh\u1edfi, Kp. 8, P. T\u00e2n Phong, Tp. Bi\u00ean H\u00f2a, T\u1ec9nh \u0110\u1ed3ng Nai."},{"id":1920,"name":"CN Pgd T\u00e2n Ph\u01b0\u1edbc Kh\u00e1nh","lat":11.004104,"lng":106.721282,"category":"Sacombank","city":"Long An","state":null,"postal":null,"phone":"0274.3612.060","address":"Khu Ph\u1ed1 Kh\u00e1nh H\u00f2a, P. T\u00e2n Ph\u01b0\u1edbc Kh\u00e1nh, Tx.T\u00e2n Uy\u00ean, T\u1ec9nh B\u00ecnh D\u01b0\u01a1ng"},{"id":1921,"name":"CN Pgd T\u00e2n Quy","lat":10.960737,"lng":106.59549,"category":"Sacombank","city":"Long An","state":null,"postal":null,"phone":"28.37954885","address":"S\u1ed1 1010, T\u1ec9nh L\u1ed9 15, \u1ea4p 12, X\u00e3 T\u00e2n Th\u1ea1nh \u0110\u00f4ng, Huy\u1ec7n C\u1ee7 Chi, Tp. H\u1ed3 Ch\u00ed Minh"},{"id":1922,"name":"CN Pgd T\u00e2n S\u01a1n Nh\u1ea5t","lat":10.804736,"lng":106.664311,"category":"Sacombank","city":"Long An","state":null,"postal":null,"phone":"(028) 6.268.0474 - 6.268.0475 - 6.268.0476","address":"97 Tr\u1ea7n Qu\u1ed1c Ho\u00e0n, Ph\u01b0\u1eddng 4, Qu\u1eadn T\u00e2n B\u00ecnh, Tp. H\u1ed3 Ch\u00ed Minh"},{"id":1923,"name":"CN Pgd T\u00e2n T\u1ea1o","lat":10.756339,"lng":106.592235,"category":"Sacombank","city":"Long An","state":null,"postal":null,"phone":"(028) 37 545 746","address":"955 T\u1ec9nh L\u1ed9 10, P. T\u00e2n T\u1ea1o, Q. B\u00ecnh T\u00e2n, Tp. H\u1ed3 Ch\u00ed Minh"},{"id":1924,"name":"CN Pgd T\u00e2n Thu\u1eadn","lat":10.738153,"lng":106.730277,"category":"Sacombank","city":"Long An","state":null,"postal":null,"phone":"(028).3.8.724.288","address":"448a H\u00f9ynh T\u1ea5n Ph\u00e1t - Ph\u01b0\u1eddng B\u00ecnh Thu\u1eadn - Qu\u1eadn 7 - Tp. H\u1ed3 Ch\u00ed Minh"},{"id":1925,"name":"CN Pgd T\u00e2n Uy\u00ean","lat":11.061706,"lng":106.795119,"category":"Sacombank","city":"Long An","state":null,"postal":null,"phone":"0274.3642.927\/929","address":"L\u00f4 F4 \u2013 F5, Khu D\u00e2n C\u01b0 Th\u01b0\u01a1ng M\u1ea1i Uy\u00ean H\u01b0ng, Ph\u01b0\u1eddng Uy\u00ean H\u01b0ng, Th\u1ecb X\u00e3 T\u00e2n Uy\u00ean, T\u1ec9nh B\u00ecnh D\u01b0\u01a1ng"},{"id":1926,"name":"CN Pgd T\u00e2y B\u1eafc","lat":10.969716,"lng":106.488601,"category":"Sacombank","city":"Long An","state":null,"postal":null,"phone":"0283.7924.159","address":"5-5b, T\u1ec9nh L\u1ed9 8, Th\u1ecb Tr\u1ea5n C\u1ee7 Chi, Huy\u1ec7n C\u1ee7 Chi, Tp. H\u1ed3 Ch\u00ed Minh"},{"id":1927,"name":"CN Pgd Th\u1ea3o \u0110i\u1ec1n","lat":10.807354,"lng":106.73336,"category":"Sacombank","city":"Long An","state":null,"postal":null,"phone":"028.35.194.368","address":"18 Th\u1ea3o \u0110i\u1ec1n, Ph\u01b0\u1eddng Th\u1ea3o \u0110i\u1ec1n, Qu\u1eadn 2, Tp. H\u1ed3 Ch\u00ed Minh"},{"id":1928,"name":"CN Pgd Th\u1ecb Ngh\u00e8","lat":10.793852,"lng":106.708238,"category":"Sacombank","city":"Long An","state":null,"postal":null,"phone":"(028) 35144767","address":"89-91 X\u00f4 Vi\u1ebft Ngh\u1ec7 T\u0129nh, Ph\u01b0\u1eddng 17, Qu\u1eadn B\u00ecnh Th\u1ea1nh, Tp. H\u1ed3 Ch\u00ed Minh"},{"id":1929,"name":"CN Pgd Th\u1ee7 Th\u1eeba","lat":10.595337,"lng":106.40544,"category":"Sacombank","city":"Long An","state":null,"postal":null,"phone":"02723 613 660","address":"2\/30b Phan V\u0103n T\u00ecnh, Th\u1ecb Tr\u1ea5n Th\u1ee7 Th\u1eeba, Th\u1ee7 Th\u1eeba, Long An"},{"id":1930,"name":"CN Pgd Tn B\u00e0 \u0110i\u1ec3m","lat":10.840247,"lng":106.600039,"category":"Sacombank","city":"Long An","state":null,"postal":null,"phone":"028. 3590 1658 (59, 60, 61)","address":"2\/1a-2\/1e Phan V\u0103n H\u1edbn - \u1ea4p Trung L\u00e2n - X\u00e3 B\u00e0 \u0110i\u1ec3m - Huy\u1ec7n H\u00f3c M\u00f4n - Tp. H\u1ed3 Ch\u00ed Minh"},{"id":1931,"name":"CN Pgd Tn B\u00e0 Qu\u1eb9o","lat":10.792875,"lng":106.6511,"category":"Sacombank","city":"Long An","state":null,"postal":null,"phone":"028.38.106.259 -028.38.106.258","address":"476 Tr\u01b0\u1eddng Chinh, Ph\u01b0\u1eddng 14, Qu\u1eadn T\u00e2n B\u00ecnh, Tp. H\u1ed3 Ch\u00ed Minh"},{"id":1932,"name":"CN Pgd Tn B\u00e0u B\u00e0ng","lat":10.95902,"lng":106.697942,"category":"Sacombank","city":"Long An","state":null,"postal":null,"phone":"(0274) 3 562.863","address":"Th\u1eeda \u0110\u1ea5t S\u1ed1 173, T\u1edd B\u1ea3n \u0110\u1ed3 26, \u0110\u1ea1i L\u1ed9 B\u00ecnh D\u01b0\u01a1ng, T\u1ed5 02, \u1ea4p B\u00e0u B\u00e0ng, X\u00e3 Lai Uy\u00ean, H.B\u00e0u B\u00e0ng, T\u1ec9nh B\u00ecnh D\u01b0\u01a1ng"},{"id":1933,"name":"CN Pgd Tn B\u00e0u C\u00e1t","lat":10.791964,"lng":106.643938,"category":"Sacombank","city":"Long An","state":null,"postal":null,"phone":"(84.8) 39 493 094","address":"201-203-205 B\u00e0u C\u00e1t, Ph\u01b0\u1eddng 14, Qu\u1eadn T\u00e2n B\u00ecnh, Tp. H\u1ed3 Ch\u00ed Minh"},{"id":1934,"name":"CN Pgd Tn Bi\u00ean H\u00f2a","lat":10.95145,"lng":106.854609,"category":"Sacombank","city":"Long An","state":null,"postal":null,"phone":"02513.913.518","address":"638 Ph\u1ea1m V\u0103n Thu\u1eadn, Kp5, P.Tam Hi\u1ec7p, Tp. Bi\u00ean H\u00f2a, T\u1ec9nh \u0110\u1ed3ng Nai"},{"id":1935,"name":"CN Pgd Tn B\u00ecnh Ch\u00e1nh","lat":10.655773,"lng":106.692018,"category":"Sacombank","city":"Long An","state":null,"postal":null,"phone":"0837.608.139","address":"D6\/62, \u1ea4p 4, X\u00e3 B\u00ecnh Ch\u00e1nh, Huy\u1ec7n B\u00ecnh Ch\u00e1nh, Tp. H\u1ed3 Ch\u00ed Minh"},{"id":1936,"name":"CN Pgd Tn B\u00ecnh Ph\u00fa","lat":10.745752,"lng":106.631161,"category":"Sacombank","city":"Long An","state":null,"postal":null,"phone":"3.7554.217","address":"152 \u0110\u01b0\u1eddng Ch\u1ee3 L\u1edbn, P11, Qu\u1eadn 6, Tp. H\u1ed3 Ch\u00ed Minh"},{"id":1937,"name":"CN Pgd Tn B\u00ecnh T\u00e2n","lat":10.738194,"lng":106.615266,"category":"Sacombank","city":"Long An","state":null,"postal":null,"phone":"08 37522271 - 08 37522273","address":"467 - 469 - 471 Kinh D\u01b0\u01a1ng V\u01b0\u01a1ng , P An L\u1ea1c, Q B\u00ecnh T\u00e2n Tp. H\u1ed3 Ch\u00ed Minh"},{"id":1938,"name":"CN Pgd Tn B\u00ecnh Tr\u1ecb \u0110\u00f4ng","lat":10.750037,"lng":106.615394,"category":"Sacombank","city":"Long An","state":null,"postal":null,"phone":"3.8170.522","address":"232 \u2013 234 Va\u0300Nh \u0110ai Trong, P. Bi\u0300Nh Tri\u0323 \u0110\u00f4ng B, Q. Bi\u0300Nh T\u00e2n, Tp. H\u1ed3 Ch\u00ed Minh"},{"id":1939,"name":"CN Pgd Tn Ch\u1ee3 C\u1ea7u","lat":10.854436,"lng":106.625079,"category":"Sacombank","city":"Long An","state":null,"postal":null,"phone":null,"address":"A58 - Khu Ph\u1ed1 2, T\u00f4 K\u00fd, Ph\u01b0\u1eddng \u0110\u00f4ng H\u01b0ng Thu\u1eadn Qu\u1eadn 12, Tp. H\u1ed3 Ch\u00ed Minh"},{"id":1940,"name":"CN Pgd Tn D\u0129 An","lat":10.900448,"lng":106.777595,"category":"Sacombank","city":"Long An","state":null,"postal":null,"phone":"0274.3734840 - 0274.3734842","address":"9\/22 Tr\u1ea7n H\u01b0ng \u0110\u1ea1o, Kp.B\u00ecnh Minh 2, P.D\u0129 An, Tx.D\u0129 An, T\u1ec9nh B\u00ecnh D\u01b0\u01a1ng"},{"id":1941,"name":"CN Pgd Tn E.Town","lat":10.802253,"lng":106.642007,"category":"Sacombank","city":"Long An","state":null,"postal":null,"phone":"(028).3.8.125.701","address":"367 C\u1ed9ng H\u00f2a - Ph\u01b0\u1eddng 13 - Qu\u1eadn T\u00e2n B\u00ecnh - Tp. H\u1ed3 Ch\u00ed Minh"},{"id":1942,"name":"CN Pgd Tn Gia Ki\u1ec7m","lat":11.037028,"lng":107.17306,"category":"Sacombank","city":"Long An","state":null,"postal":null,"phone":"0251.3778.487\/ 0251.3766.336","address":"Ql 20, \u1ea4p Gia Y\u00ean, X\u00e3 Gia T\u00e2n 3, H.Th\u1ed1ng Nh\u1ea5t, T\u1ec9nh \u0110\u1ed3ng Nai"},{"id":1943,"name":"CN Pgd Tn H\u00e0n H\u1ea3i Nguy\u00ean","lat":10.758538,"lng":106.644164,"category":"Sacombank","city":"Long An","state":null,"postal":null,"phone":"(028)3.969.9909","address":"278-280 H\u00e0n H\u1ea3i Nguy\u00ean, Ph\u01b0\u1eddng 9, Qu\u1eadn 11, Tp. H\u1ed3 Ch\u00ed Minh"},{"id":1944,"name":"CN Pgd Tn H\u1ed1 Nai","lat":10.941996,"lng":106.863405,"category":"Sacombank","city":"Long An","state":null,"postal":null,"phone":"02513.884.149","address":"11b\/82 Khu Ph\u1ed1 1, P. T\u00e2n Bi\u00ean, Tp.Bi\u00ean H\u00f2a, T\u1ec9nh \u0110\u1ed3ng Nai"},{"id":1945,"name":"CN Pgd Tn Kcn T\u00e2n B\u00ecnh","lat":10.810253,"lng":106.620034,"category":"Sacombank","city":"Long An","state":null,"postal":null,"phone":"38.156.871","address":"62- 64 T\u00e2y Th\u1ea1nh, P. T\u00e2y Th\u1ea1nh, Q. T\u00e2n Ph\u00fa, Tp. H\u1ed3 Ch\u00ed Minh"},{"id":1946,"name":"CN Pgd Tn L\u1ea1c H\u1ed3ng","lat":10.783297,"lng":106.650669,"category":"Sacombank","city":"Long An","state":null,"postal":null,"phone":"(84.28) 39.752.940","address":"1016 L\u1ea1c Long Qu\u00e2n, Ph\u01b0\u1eddng 8, Qu\u1eadn T\u00e2n B\u00ecnh, Tp. H\u1ed3 Ch\u00ed Minh"},{"id":1947,"name":"CN Pgd Tn L\u00e1i Thi\u00eau","lat":10.91119,"lng":106.700347,"category":"Sacombank","city":"Long An","state":null,"postal":null,"phone":"0274.3760.375","address":"C186a T\u1ed5 18, Kp.B\u00ecnh \u0110\u1ee9c, Tt. L\u00e1i Thi\u00eau, Thu\u1eadn An, T\u1ec9nh B\u00ecnh D\u01b0\u01a1ng"},{"id":1948,"name":"CN Pgd Tn L\u00ea Tr\u1ecdng T\u1ea5n","lat":10.805987,"lng":106.627713,"category":"Sacombank","city":"Long An","state":null,"postal":null,"phone":"028 38165685","address":"143 - 145 L\u00ea Tr\u1ecdng T\u1ea5n, P. S\u01a1n K\u1ef3, Q. T\u00e2n Ph\u00fa, Tp. H\u1ed3 Ch\u00ed Minh"},{"id":1949,"name":"CN Pgd Tn L\u00ea V\u0103n Qu\u1edbi","lat":10.776136,"lng":106.613645,"category":"Sacombank","city":"Long An","state":null,"postal":null,"phone":"8.39721815","address":"246 L\u00ea V\u0103n Qu\u1edbi, P. B\u00ecnh H\u01b0ng H\u00f2a A, Qu\u1eadn B\u00ecnh T\u00e2n, Tp. Tp. H\u1ed3 Ch\u00ed Minh"},{"id":1950,"name":"CN Pgd Tn Nguy\u1ec5n C\u01b0 Trinh","lat":10.762887,"lng":106.687906,"category":"Sacombank","city":"Long An","state":null,"postal":null,"phone":"028.3920 8911-12-13","address":"152 Tr\u1ea7n \u0110\u00ecnh Xu, P.Nguy\u1ec5n C\u01b0 Trinh, Q1, Tp. H\u1ed3 Ch\u00ed Minh"},{"id":1951,"name":"CN Pgd Tn \u00d4ng T\u1ea1","lat":10.792563,"lng":106.654008,"category":"Sacombank","city":"Long An","state":null,"postal":null,"phone":"39.907.043","address":"884-886 Cmt8, P5, T\u00e2n B\u00ecnh, Tp. H\u1ed3 Ch\u00ed Minh"},{"id":1952,"name":"CN Pgd Tn Phan X\u00edch Long","lat":10.798445,"lng":106.688614,"category":"Sacombank","city":"Long An","state":null,"postal":null,"phone":"028.3517.8887","address":"159 Phan X\u00edch Long, Ph\u01b0\u1eddng 7, Qu\u1eadn Ph\u00fa Nhu\u1eadn, Tp. H\u1ed3 Ch\u00ed Minh"},{"id":1953,"name":"CN Pgd Tn Phong Lan","lat":10.782841,"lng":106.654709,"category":"Sacombank","city":"Long An","state":null,"postal":null,"phone":"(028) 39.717.153","address":"192-194 L\u00fd Th\u01b0\u1eddng Ki\u1ec7t, Ph\u01b0\u1eddng 8, Qu\u1eadn T\u00e2n B\u00ecnh, Tp. H\u1ed3 Ch\u00ed Minh"},{"id":1954,"name":"CN Pgd Tn Ph\u00fa Th\u1ecd H\u00f2a","lat":10.783903,"lng":106.623459,"category":"Sacombank","city":"Long An","state":null,"postal":null,"phone":"02839722996- 02838610981","address":"322-324 Nguy\u1ec5n S\u01a1n, Ph\u01b0\u1eddng Ph\u00fa Th\u1ecd H\u00f2a, Qu\u1eadn T\u00e2n Ph\u00fa, Tp. H\u1ed3 Ch\u00ed Minh"},{"id":1955,"name":"CN Pgd Tn Qu\u1eadn 1","lat":10.767301,"lng":106.699533,"category":"Sacombank","city":"Long An","state":null,"postal":null,"phone":"0283.9144514 - 0283.9144515 - (028) 39152.856","address":"63 B Calmette, P.Nguy\u1ec5n Th\u00e1i B\u00ecnh, Qu\u1eadn 1, Tp. H\u1ed3 Ch\u00ed Minh"},{"id":1956,"name":"CN Pgd Tn T\u00e2n H\u01b0\u01a1ng","lat":10.789678,"lng":106.618078,"category":"Sacombank","city":"Long An","state":null,"postal":null,"phone":"(84.8) 35 594 253","address":"161-163 T\u00e2n H\u01b0\u01a1ng, P. T\u00e2n Q\u00fay, Q. T\u00e2n Ph\u00fa, Tp. H\u1ed3 Ch\u00ed Minh"},{"id":1957,"name":"CN Pgd Tn T\u00e2n Qu\u00fd","lat":10.795578,"lng":106.62947,"category":"Sacombank","city":"Long An","state":null,"postal":null,"phone":"35 594632 - 35 594633 - 38 134 106","address":"32-32a-30\/1 G\u00f2 D\u1ea7u - P.T\u00e2n S\u01a1n Nh\u00ec - Q.T\u00e2n Ph\u00fa - Tp. H\u1ed3 Ch\u00ed Minh"},{"id":1958,"name":"CN Pgd Tn Th\u1ea1nh L\u1ed9c","lat":10.857776,"lng":106.679922,"category":"Sacombank","city":"Long An","state":null,"postal":null,"phone":"028.37.163.903 - 028.37.163.904 - 028.37.164.029","address":"170 H\u00e0 Huy Gi\u00e1p, Ph\u01b0\u1eddng Th\u1ea1nh L\u1ed9c, Qu\u1eadn 12, Tp. H\u1ed3 Ch\u00ed Minh"},{"id":1959,"name":"CN Pgd Tn Th\u1edbi An","lat":10.884909,"lng":106.648013,"category":"Sacombank","city":"Long An","state":null,"postal":null,"phone":"(028).3.7.177.308","address":"25\/3 L\u00ea V\u0103n Kh\u01b0\u01a1ng - Ph\u01b0\u1eddng Th\u1edbi An - Qu\u1eadn 12 - Tp. H\u1ed3 Ch\u00ed Minh"},{"id":1960,"name":"CN Pgd Tn Th\u00f4ng T\u00e2y","lat":10.844754,"lng":106.639589,"category":"Sacombank","city":"Long An","state":null,"postal":null,"phone":"(028) 39870874; (028)38958561","address":"2\/5 Quang Trung P11 Qu\u1eadn G\u00f2 V\u1ea5p Tp. H\u1ed3 Ch\u00ed Minh"},{"id":1961,"name":"CN Pgd Tn Th\u1ee7 D\u1ea7u M\u1ed9t","lat":10.983489,"lng":106.652803,"category":"Sacombank","city":"Long An","state":null,"postal":null,"phone":"(0650) 3859 961","address":"425 C\u00e1ch M\u1ea1ng Th\u00e1ng T\u00e1m, Ph\u01b0\u1eddng Ph\u00fa C\u01b0\u1eddng, Th\u1ecb X\u00e3 Th\u1ee7 D\u1ea7u M\u1ed9t, T\u1ec9nh B\u00ecnh D\u01b0\u01a1ng"},{"id":1962,"name":"CN Pgd Tn Tr\u1ea3ng Bom","lat":10.964564,"lng":106.933463,"category":"Sacombank","city":"Long An","state":null,"postal":null,"phone":"02513.673.970","address":"S\u1ed1 07, Qu\u1ed1c L\u1ed9 1a, \u1ea4p Th\u00e1i H\u00f2a,X.H\u1ed1 Nai 3, H.Tr\u1ea3ng Bom, T\u1ec9nh \u0110\u1ed3ng Nai"},{"id":1963,"name":"CN Pgd Tn Trung Ch\u00e1nh","lat":10.855698,"lng":106.607413,"category":"Sacombank","city":"Long An","state":null,"postal":null,"phone":"8.38839325","address":"145\/5 Nguy\u1ec5n \u1ea2nh Th\u1ee7, X\u00e3 Trung Ch\u00e1nh, Huy\u1ec7n H\u00f3c M\u00f4n, Tp. H\u1ed3 Ch\u00ed Minh"},{"id":1964,"name":"CN Pgd Tn Trung S\u01a1n","lat":10.738686,"lng":106.689857,"category":"Sacombank","city":"Long An","state":null,"postal":null,"phone":"(028) 54 317 123","address":"29-31 \u0110\u01b0\u1eddng 9a, Kdc Trung S\u01a1n, B\u00ecnh H\u01b0ng, B\u00ecnh Ch\u00e1nh, Tp. H\u1ed3 Ch\u00ed Minh"},{"id":1965,"name":"CN Pgd Tn X\u00f3m M\u1edbi","lat":10.848397,"lng":106.643352,"category":"Sacombank","city":"Long An","state":null,"postal":null,"phone":"(028)39.164.244 - (028)39.963.090 - (028)39.164.243","address":"415 - 417 Ph\u1ea1m V\u0103n Chi\u00eau, Ph\u01b0\u1eddng 14, Qu\u1eadn G\u00f2 V\u1ea5p, Tp. H\u1ed3 Ch\u00ed Minh"},{"id":1966,"name":"CN Pgd Tr\u1ea7n V\u0103n Ki\u1ec3u","lat":10.749714,"lng":106.661953,"category":"Sacombank","city":"Long An","state":null,"postal":null,"phone":"(+84-28) 39 520 301","address":"1240 V\u00f5 V\u0103n Ki\u1ec7t, Ph\u01b0\u1eddng 10, Qu\u1eadn 5, Tp. H\u1ed3 Ch\u00ed Minh, Vi\u1ec7t Nam"},{"id":1967,"name":"CN Pgd Tr\u1ea7n Xu\u00e2n So\u1ea1n","lat":10.751679,"lng":106.69898,"category":"Sacombank","city":"Long An","state":null,"postal":null,"phone":"028. 3771 5150","address":"785 Tr\u1ea7n Xu\u00e2n So\u1ea1n, P. T\u00e2n H\u01b0ng, Qu\u1eadn 7, Tp. H\u1ed3 Ch\u00ed Minh."},{"id":1968,"name":"CN Pgd Tr\u01b0\u1eddng Chinh","lat":10.800695,"lng":106.638684,"category":"Sacombank","city":"Long An","state":null,"postal":null,"phone":"(08)54.340.430","address":"426 Tr\u01b0\u1eddng Chinh, Ph\u01b0\u1eddng 13, Qu\u1eadn T\u00e2n B\u00ecnh, Tp. H\u1ed3 Ch\u00ed Minh"},{"id":1969,"name":"CN Pgd T\u00f9ng Thi\u1ec7n V\u01b0\u01a1ng","lat":10.745017,"lng":106.657125,"category":"Sacombank","city":"Long An","state":null,"postal":null,"phone":"28.39514845","address":"384-386 T\u00f9ng Thi\u1ec7n V\u01b0\u01a1ng, Ph\u01b0\u1eddng 13, Qu\u1eadn 8, Tp. H\u1ed3 Ch\u00ed Minh"},{"id":1970,"name":"CN Pgd V\u0103n Lang","lat":10.754028,"lng":106.663375,"category":"Sacombank","city":"Long An","state":null,"postal":null,"phone":"(028).39507690","address":"112 (B\u00ean Tr\u00e1i) \u0110\u01b0\u1eddng Ng\u00f4 Quy\u1ec1n, Ph\u01b0\u1eddng 08, Qu\u1eadn 5, Tp.H\u1ed3 Ch\u00ed Minh"},{"id":1971,"name":"CN Pgd V\u0129nh C\u1eedu","lat":11.088889,"lng":107.033889,"category":"Sacombank","city":"Long An","state":null,"postal":null,"phone":"(0251) 3.961.323","address":"T\u1ed5 7a, Kp8, Tt V\u0129nh An, Huy\u1ec7n V\u0129nh C\u1eedu, T\u1ec9nh \u0110\u1ed3ng Nai"},{"id":1972,"name":"CN Pgd V\u0129nh H\u01b0ng","lat":10.888599,"lng":105.785837,"category":"Sacombank","city":"Long An","state":null,"postal":null,"phone":"0272 397 5555","address":"79, Cmt8, Tt V\u0129nh H\u01b0ng, Huy\u1ec7n V\u0129nh H\u01b0ng, Long An"},{"id":1973,"name":"CN Pgd V\u0129nh L\u1ed9c","lat":10.814604,"lng":106.583524,"category":"Sacombank","city":"Long An","state":null,"postal":null,"phone":"08.3620.4590","address":"D1\/10 Nguy\u1ec5n Th\u1ecb T\u00fa, \u1ea4p 4, X\u00e3 V\u0129nh L\u1ed9c B, Huy\u1ec7n B\u00ecnh Ch\u00e1nh, Tp. H\u1ed3 Ch\u00ed Minh"},{"id":1974,"name":"CN Pgd V\u00f5 V\u0103n Ng\u00e2n","lat":10.851119,"lng":106.756557,"category":"Sacombank","city":"Long An","state":null,"postal":null,"phone":"028.37.206.988","address":"46a V\u00f5 V\u0103n Ng\u00e2n, P.Tr\u01b0\u1eddng Th\u1ecd, Q.Th\u1ee7 \u0110\u1ee9c, Tp. H\u1ed3 Ch\u00ed Minh"},{"id":1975,"name":"CN Pgd V\u00f5 V\u0103n T\u1ea7n","lat":10.771936,"lng":106.686145,"category":"Sacombank","city":"Long An","state":null,"postal":null,"phone":"02838.335.647","address":"291 B - 291\/1a V\u00f5 V\u0103n T\u1ea7n, Ph\u01b0\u1eddng 5, Qu\u1eadn 3, Tp. H\u1ed3 Ch\u00ed Minh"},{"id":1976,"name":"CN Pgd X\u00f4 Vi\u1ebft Ngh\u1ec7 T\u0129nh","lat":10.798934,"lng":106.710906,"category":"Sacombank","city":"Long An","state":null,"postal":null,"phone":"028 35 123 759","address":"165 X\u00f4 Vi\u1ebft Ngh\u1ec7 T\u0129nh, Ph\u01b0\u1eddng 17, Qu\u1eadn B\u00ecnh Th\u1ea1nh, Tp. H\u1ed3 Ch\u00ed Minh"},{"id":1977,"name":"CN Pgd Xu\u00e2n L\u1ed9c","lat":10.91344,"lng":107.398139,"category":"Sacombank","city":"Long An","state":null,"postal":null,"phone":"02513.743.139","address":"\u0110\u01b0\u1eddng H\u00f9ng V\u01b0\u01a1ng, Khu Ph\u1ed1 4, Th\u1ecb Tr\u1ea5n Gia Ray, Huy\u1ec7n Xu\u00e2n L\u1ed9c, T\u1ec9nh \u0110\u1ed3ng Nai."},{"id":1978,"name":"CN Pgd Xu\u00e2n Th\u1edbi Th\u01b0\u1ee3ng","lat":10.863151,"lng":106.568571,"category":"Sacombank","city":"Long An","state":null,"postal":null,"phone":"(028)37137898","address":"53\/3g Phan V\u0103n H\u1edbn \u1ea4p 4, X\u00e3 Xu\u00e2n Th\u1edbi Th\u01b0\u1ee3ng, Huy\u1ec7n H\u00f3c M\u00f4n, Tp. H\u1ed3 Ch\u00ed Minh"},{"id":1979,"name":"CN","lat":10.949431,"lng":106.818575,"category":"Sacombank","city":"Long An","state":null,"postal":null,"phone":"0618.820.104","address":"L\u1ea7u 01, S\u1ed1 228 \u0110\u01b0\u1eddng 30\/4, P. Thanh B\u00ecnh, Bi\u00ean H\u00f2a \u0110\u1ed3ng Nai"},{"id":1980,"name":"V\u0103n Ph\u00f2ng Kv \u0110\u00f4ng Nam B\u1ed9","lat":10.949221,"lng":106.817601,"category":"Sacombank","city":"Long An","state":null,"postal":null,"phone":"(0251) 8820106 - Ext: 1504","address":"S\u1ed1 228 \u0110\u01b0\u1eddng 30\/04, Kp 3, Ph\u01b0\u1eddng Thanh B\u00ecnh, Tp. Bi\u00ean H\u00f2a, T\u1ec9nh \u0110\u1ed3ng Nai"},{"id":1981,"name":"B\u00ecnh D\u01b0\u01a1ng","lat":10.979838,"lng":106.667215,"category":"Sacombank","city":"Long An","state":null,"postal":null,"phone":"0274.3859.595","address":"431 \u0110\u1ea1i L\u1ed9 B\u00ecnh D\u01b0\u01a1ng,P.Ph\u00fa C\u01b0\u1eddng Tp.Th\u1ee7 D\u1ea7u M\u1ed9t, T\u1ec9nh B\u00ecnh D\u01b0\u01a1ng"},{"id":1982,"name":"\u0110\u1ed3ng Nai","lat":10.949431,"lng":106.818575,"category":"Sacombank","city":"Long An","state":null,"postal":null,"phone":"02513.946.067","address":"228 \u0110\u01b0\u1eddng 30\/4, Kp 3,P. Thanh B\u00ecnh, Tp. Bi\u00ean H\u00f2a, T\u1ec9nh \u0110\u1ed3ng Nai"},{"id":1983,"name":"Long Kh\u00e1nh","lat":10.931131,"lng":107.243666,"category":"Sacombank","city":"Long An","state":null,"postal":null,"phone":"0251.3783.587","address":"259 \u0110\u01b0\u1eddng H\u00f9ng V\u01b0\u01a1ng, Kp5, Ph\u01b0\u1eddng Xu\u00e2n H\u00f2a, Th\u1ecb X\u00e3 Long Kh\u00e1nh, T\u1ec9nh \u0110\u1ed3ng Nai"},{"id":1984,"name":"B\u1ebfn C\u00e1t","lat":11.091364,"lng":106.691519,"category":"Sacombank","city":"Long An","state":null,"postal":null,"phone":"(0274) 3.559.669","address":"S\u1ed1 288, \u0110\u01b0\u1eddng H\u00f9ng V\u01b0\u01a1ng, T\u1ed5 13, Khu Ph\u1ed1 1, Ph\u01b0\u1eddng M\u1ef9 Ph\u01b0\u1edbc, Th\u1ecb X\u00e3 B\u1ebfn C\u00e1t, B\u00ecnh D\u01b0\u01a1ng."},{"id":1985,"name":"V\u0103n Ph\u00f2ng Kv \u0110\u00f4ng Tp. H\u1ed3 Ch\u00ed Minh","lat":10.787724,"lng":106.686656,"category":"Sacombank","city":"Long An","state":null,"postal":null,"phone":null,"address":"L\u1ea7u 9 266 - 268 Nam K\u1ef3 Kh\u1edfi Ngh\u0129a, Ph\u01b0\u1eddng 8, Qu\u1eadn 3, Tp. H\u1ed3 Ch\u00ed Minh"},{"id":1986,"name":"Trung T\u00e2m","lat":10.787774,"lng":106.686295,"category":"Sacombank","city":"Long An","state":null,"postal":null,"phone":"+84 28 3526.6000","address":"266-268 Nam K\u1ef3 Kh\u1edfi Ngh\u0129a, Ph\u01b0\u1eddng 8, Qu\u1eadn 3, Tp. H\u1ed3 Ch\u00ed Minh"},{"id":1987,"name":"T\u00e2n \u0110\u1ecbnh","lat":10.787476,"lng":106.692405,"category":"Sacombank","city":"Long An","state":null,"postal":null,"phone":"028. 3823 7209","address":"247 - 247 Bis - 249 Hai B\u00e0 Tr\u01b0ng, Ph\u01b0\u1eddng 6, Qu\u1eadn 3, Tp. Tp. H\u1ed3 Ch\u00ed Minh"},{"id":1988,"name":"Ph\u00fa Nhu\u1eadn","lat":10.800545,"lng":106.68194,"category":"Sacombank","city":"Long An","state":null,"postal":null,"phone":"(028) 3995 6355","address":"197 Phan \u0110\u0103ng L\u01b0u , P1 , Qu\u1eadn Ph\u00fa Nhu\u1eadn , Tp. H\u1ed3 Ch\u00ed Minh"},{"id":1989,"name":"\u0110i\u1ec7n Bi\u00ean Ph\u1ee7","lat":10.770577,"lng":106.67677,"category":"Sacombank","city":"Long An","state":null,"postal":null,"phone":"(+84) 28 3938 1870","address":"549 \u0110i\u1ec7n Bi\u00ean Ph\u1ee7 Ph\u01b0\u1eddng 3 , Qu\u1eadn 3 Tp. H\u1ed3 Ch\u00ed Minh"},{"id":1990,"name":"G\u00f2 V\u1ea5p","lat":10.82839,"lng":106.679286,"category":"Sacombank","city":"Long An","state":null,"postal":null,"phone":"(028) 38.943.648","address":"88-98 Nguy\u1ec5n Oanh, P.7, Q.G\u00f2 V\u1ea5p, Tp. Tp. H\u1ed3 Ch\u00ed Minh"},{"id":1991,"name":"S\u00e0i G\u00f2n","lat":10.768309,"lng":106.694855,"category":"Sacombank","city":"Long An","state":null,"postal":null,"phone":"2839208296","address":"177-179-181 Nguy\u1ec5n Th\u00e1i H\u1ecdc, Ph\u01b0\u1eddng Ph\u1ea1m Ng\u0169 L\u00e3o, Qu\u1eadn 1, Tp. H\u1ed3 Ch\u00ed Minh"},{"id":1992,"name":"Th\u1ee7 \u0110\u1ee9c","lat":10.850715,"lng":106.764679,"category":"Sacombank","city":"Long An","state":null,"postal":null,"phone":"(08) 37.222.799","address":"231 V\u00f5 V\u0103n Ng\u00e2n, P.Linh Chi\u1ec3u, Q.Th\u1ee7 \u0110\u1ee9c, Tp. H\u1ed3 Ch\u00ed Minh"},{"id":1993,"name":"Nh\u00e0 B\u00e8","lat":10.696657,"lng":106.739433,"category":"Sacombank","city":"Long An","state":null,"postal":null,"phone":"(028) 38 738 827","address":"S\u1ed1 1847 - 1849 \u0110\u01b0\u1eddng Hu\u1ef3nh T\u1ea5n Ph\u00e1t, Khu Ph\u1ed1 4, Th\u1ecb Tr\u1ea5n Nh\u00e0 B\u00e8, Huy\u1ec7n Nh\u00e0 B\u00e8, Tp. H\u1ed3 Ch\u00ed Minh"},{"id":1994,"name":"Nguy\u1ec5n V\u0103n Tr\u1ed7i","lat":10.792507,"lng":106.680654,"category":"Sacombank","city":"Long An","state":null,"postal":null,"phone":"028. 3844 8324","address":"29-31 Nguy\u1ec5n V\u0103n Tr\u1ed7i, Ph\u01b0\u1eddng 12, Qu\u1eadn Ph\u00fa Nhu\u1eadn, Tp. H\u1ed3 Ch\u00ed Minh"},{"id":1995,"name":"Qu\u1eadn 7","lat":10.738913,"lng":106.71153,"category":"Sacombank","city":"Long An","state":null,"postal":null,"phone":"(028) 3776.0299","address":"370 Nguy\u1ec5n Th\u1ecb Th\u1eadp, P.T\u00e2n Quy, Q.7, Tp. H\u1ed3 Ch\u00ed Minh"},{"id":1996,"name":"B\u1ebfn Th\u00e0nh","lat":10.770965,"lng":106.693605,"category":"Sacombank","city":"Long An","state":null,"postal":null,"phone":"028. 3925 6810 - 028. 3925 6812","address":"28-30-32 Nguy\u1ec5n Th\u1ecb Ngh\u0129a, Ph\u01b0\u1eddng B\u1ebfn Th\u00e0nh, Qu\u1eadn 1, Tp. H\u1ed3 Ch\u00ed Minh"},{"id":1997,"name":"Qu\u1eadn 9","lat":10.81851,"lng":106.774219,"category":"Sacombank","city":"Long An","state":null,"postal":null,"phone":"(028).3728.1971","address":"270-272, \u0110\u1ed7 Xu\u00e2n H\u1ee3p, P.Ph\u01b0\u1edbc Long A, Qu\u1eadn 9, Tp.H\u1ed3 Ch\u00ed Minh"},{"id":1998,"name":"V\u0103n Ph\u00f2ng Kv T\u00e2y Tp. H\u1ed3 Ch\u00ed Minh","lat":10.787724,"lng":106.686656,"category":"Sacombank","city":"Long An","state":null,"postal":null,"phone":"(028) 83.8469.516","address":"L\u1ea7u 9, 266-268 Nam K\u1ef3 Kh\u1edfi Ngh\u0129a, P8, Q3, Tp.H\u1ed3 Ch\u00ed Minh"},{"id":1999,"name":"H\u00f3c M\u00f4n","lat":10.884732,"lng":106.587604,"category":"Sacombank","city":"Long An","state":null,"postal":null,"phone":"(028)37107939 - (028)37103131","address":"19\/4a L\u00fd Th\u01b0\u1eddng Ki\u1ec7t, Th\u1ecb Tr\u1ea5n H\u00f3c M\u00f4n, Huy\u1ec7n H\u00f3c M\u00f4n, Tp. H\u1ed3 Ch\u00ed Minh"},{"id":2000,"name":"T\u00e2n Ph\u00fa","lat":10.769159,"lng":106.634194,"category":"Sacombank","city":"Long An","state":null,"postal":null,"phone":"(08) 39.618.725","address":"47 H\u00f2a B\u00ecnh, P. T\u00e2n Th\u1edbi H\u00f2a, Q. T\u00e2n Ph\u00fa, Tp. H\u1ed3 Ch\u00ed Minh"},{"id":2001,"name":"T\u00e2n B\u00ecnh","lat":10.794903,"lng":106.66801,"category":"Sacombank","city":"Long An","state":null,"postal":null,"phone":"39.907.202","address":"224 L\u00ea V\u0103n S\u1ef9, Ph\u01b0\u1eddng 1, Qu\u1eadn T\u00e2n B\u00ecnh, Tp. H\u1ed3 Ch\u00ed Minh"},{"id":2002,"name":"Qu\u1eadn 12","lat":10.82654,"lng":106.626413,"category":"Sacombank","city":"Long An","state":null,"postal":null,"phone":"028.3592.6001","address":"38 Tr\u01b0\u1eddng Chinh, Ph\u01b0\u1eddng T\u00e2n H\u01b0ng Thu\u1eadn, Qu\u1eadn 12 Tp. H\u1ed3 Ch\u00ed Minh"},{"id":2003,"name":"H\u01b0ng \u0110\u1ea1o","lat":10.756734,"lng":106.684926,"category":"Sacombank","city":"Long An","state":null,"postal":null,"phone":"08.3 9232 800","address":"99a Nguy\u1ec5n V\u0103n C\u1eeb, Ph\u01b0\u1eddng 02, Qu\u1eadn 5, Tp. H\u1ed3 Ch\u00ed Minh"},{"id":2004,"name":"C\u1ee7 Chi","lat":10.94372,"lng":106.526503,"category":"Sacombank","city":"Long An","state":null,"postal":null,"phone":"0283.7901.262","address":"345 Ql 22, \u1ea4p Th\u01b0\u1ee3ng, X\u00e3 T\u00e2n Th\u00f4ng H\u1ed9i, Huy\u1ec7n C\u1ee7 Chi, Tp. H\u1ed3 Ch\u00ed Minh"},{"id":2005,"name":"Ch\u1ee3 L\u1edbn","lat":10.756336,"lng":106.651579,"category":"Sacombank","city":"Long An","state":null,"postal":null,"phone":"(08)-3.9555.280","address":"920-920a-920b, Nguy\u1ec5n Ch\u00ed Thanh, P.4, Q.11, Tp. Tp. H\u1ed3 Ch\u00ed Minh"},{"id":2006,"name":"B\u00ecnh T\u00e2y","lat":10.748189,"lng":106.634793,"category":"Sacombank","city":"Long An","state":null,"postal":null,"phone":"39.699.351","address":"59-61-63-65 H\u1eadu Giang, P2, Q6, Tp. H\u1ed3 Ch\u00ed Minh"},{"id":2007,"name":"Hoa Vi\u1ec7t","lat":10.752216,"lng":106.660946,"category":"Sacombank","city":"Long An","state":null,"postal":null,"phone":"(028)3.855.3131","address":"382ab Tr\u1ea7n H\u01b0ng \u0110\u1ea1o, Ph\u01b0\u1eddng 11, Qu\u1eadn 5, Tp. H\u1ed3 Ch\u00ed Minh"},{"id":2008,"name":"Qu\u1eadn 5","lat":10.753133,"lng":106.67388,"category":"Sacombank","city":"Long An","state":null,"postal":null,"phone":"(028).39240263\/64\/65; (028) 38369305\/06\/07","address":"1093 - 1095 - 1097 - 1099 Tr\u1ea7n H\u01b0ng \u0110\u1ea1o, Ph\u01b0\u1eddng 5, Qu\u1eadn 5 Tp. H\u1ed3 Ch\u00ed Minh"},{"id":2009,"name":"Qu\u1eadn 11","lat":10.761893,"lng":106.656372,"category":"Sacombank","city":"Long An","state":null,"postal":null,"phone":"(+84) 283.965.0481","address":"970 Ba Th\u00e1ng Hai, P.12, Q.11, Tp. H\u1ed3 Ch\u00ed Minh"},{"id":2010,"name":"Minh Ph\u1ee5ng","lat":10.755597,"lng":106.643532,"category":"Sacombank","city":"Long An","state":null,"postal":null,"phone":"08. 3960 60 50","address":"258 \u0110\u01b0\u1eddng Minh Ph\u1ee5ng, Ph\u01b0\u1eddng 02, Qu\u1eadn 11, Tp H\u1ed3 Ch\u00ed Minh"},{"id":2011,"name":"V\u00e0m C\u1ecf","lat":10.537593,"lng":106.405464,"category":"Sacombank","city":"Long An","state":null,"postal":null,"phone":"(0272) 352 4474","address":"84 \u0110\u01b0\u1eddng H\u00f9ng V\u01b0\u01a1ng, Ph\u01b0\u1eddng 02, Th\u00e0nh Ph\u1ed1 T\u00e2n An, T\u1ec9nh Long An"},{"id":2012,"name":"Long An","lat":10.536558,"lng":106.406169,"category":"Sacombank","city":"Long An","state":null,"postal":null,"phone":"02723.831.590","address":"165-167-169 H\u00f9ng V\u01b0\u01a1ng, Tp. T\u00e2n An, Long An."}]